2024-08-12 20:39:29$GPGSV,1,1,01,32,00,000,26,1*50
	
2024-08-12 20:39:30$GPGSV,1,1,01,32,00,000,26,1*50
	
2024-08-12 20:39:31$GPGSV,1,1,01,32,00,000,26,1*50
	
2024-08-12 20:39:32$GPGSV,1,1,01,32,00,000,27,1*51
	
2024-08-12 20:39:33$GPGSV,1,1,01,32,00,000,27,1*51
	
2024-08-12 20:39:34$GPGSV,1,1,01,32,00,000,30,1*57
	
2024-08-12 20:39:35$GPGSV,1,1,01,32,00,000,25,1*53
	
2024-08-12 20:39:36$GPGSV,1,1,01,32,00,000,21,1*57
	
2024-08-12 20:39:37$GPGSV,1,1,01,32,00,000,23,1*55
	
2024-08-12 20:39:38$GPGSV,1,1,01,32,00,000,32,1*55
	
2024-08-12 20:39:39$GPGSV,1,1,01,32,00,000,32,1*55
	
2024-08-12 20:39:40$GPGSV,1,1,02,32,00,000,39,50,00,000,35,1*6E
	
2024-08-12 20:39:41$GPGSV,1,1,02,32,00,000,38,50,00,000,34,1*6E
	
2024-08-12 20:39:41$GAGSV,1,1,01,06,00,000,34,7*43
	
2024-08-12 20:39:42$GPGSV,1,1,02,32,00,000,35,50,00,000,34,1*63
	
2024-08-12 20:39:42$GAGSV,1,1,01,06,00,000,31,7*46
	
2024-08-12 20:39:43$GPGSV,1,1,02,32,00,000,32,50,00,000,34,1*64
	
2024-08-12 20:39:43$GAGSV,1,1,01,06,00,000,29,7*4F
	
2024-08-12 20:39:44$GPGSV,1,1,04,12,00,000,26,25,00,000,29,32,00,000,30,50,00,000,34,1*6B
	
2024-08-12 20:39:44$GAGSV,1,1,01,06,00,000,28,7*4E
	
2024-08-12 20:39:45$GPGSV,2,1,05,12,00,000,26,23,00,000,27,25,00,000,29,32,00,000,29,1*67
	
2024-08-12 20:39:45$GPGSV,2,2,05,50,00,000,34,1*53
	
2024-08-12 20:39:45$GAGSV,1,1,01,06,00,000,26,7*40
	
2024-08-12 20:39:46$GPGSV,2,1,05,12,00,000,26,23,00,000,31,25,00,000,29,32,00,000,34,1*6C
	
2024-08-12 20:39:46$GPGSV,2,2,05,50,00,000,34,1*53
	
2024-08-12 20:39:46$GAGSV,1,1,01,06,00,000,31,7*46
	
2024-08-12 20:39:47$GPGSV,2,1,05,12,00,000,29,23,00,000,29,25,00,000,30,32,00,000,31,1*67
	
2024-08-12 20:39:47$GPGSV,2,2,05,50,00,000,34,1*53
	
2024-08-12 20:39:47$GAGSV,1,1,01,06,00,000,27,7*41
	
2024-08-12 20:39:48$GPGSV,2,1,05,12,00,000,29,23,00,000,26,25,00,000,30,32,00,000,30,1*69
	
2024-08-12 20:39:48$GPGSV,2,2,05,50,00,000,34,1*53
	
2024-08-12 20:39:48$GAGSV,1,1,01,06,00,000,26,7*40
	
2024-08-12 20:39:49$GPGSV,2,1,05,12,00,000,29,23,00,000,26,25,00,000,30,32,00,000,27,1*6F
	
2024-08-12 20:39:49$GPGSV,2,2,05,50,00,000,34,1*53
	
2024-08-12 20:39:49$GAGSV,1,1,01,06,00,000,26,7*40
	
2024-08-12 20:39:50$GPGSV,2,1,05,12,00,000,29,23,00,000,20,25,00,000,25,32,00,000,26,1*6C
	
2024-08-12 20:39:50$GPGSV,2,2,05,50,00,000,34,1*53
	
2024-08-12 20:39:50$GAGSV,1,1,01,06,00,000,26,7*40
	
2024-08-12 20:39:51$GPGSV,2,1,05,12,00,000,29,23,00,000,22,25,00,000,25,32,00,000,26,1*6E
	
2024-08-12 20:39:51$GPGSV,2,2,05,50,00,000,34,1*53
	
2024-08-12 20:39:51$GAGSV,1,1,01,06,00,000,20,7*46
	
2024-08-12 20:39:52$GPGSV,2,1,05,12,00,000,20,23,00,000,22,25,00,000,25,32,00,000,26,1*67
	
2024-08-12 20:39:52$GPGSV,2,2,05,50,00,000,34,1*53
	
2024-08-12 20:39:52$GAGSV,1,1,01,06,00,000,20,7*46
	
2024-08-12 20:39:53$GPGSV,2,1,05,12,00,000,22,23,00,000,20,25,00,000,18,32,00,000,27,1*68
	
2024-08-12 20:39:53$GPGSV,2,2,05,50,00,000,34,1*53
	
2024-08-12 20:39:53$GAGSV,1,1,01,06,00,000,21,7*47
	
2024-08-12 20:39:54$GPGSV,2,1,05,12,00,000,22,23,00,000,20,25,00,000,18,32,00,000,25,1*6A
	
2024-08-12 20:39:54$GPGSV,2,2,05,50,00,000,34,1*53
	
2024-08-12 20:39:54$GAGSV,1,1,01,06,00,000,21,7*47
	
2024-08-12 20:39:55$GPGSV,2,1,05,12,00,000,20,23,00,000,21,25,00,000,18,32,00,000,26,1*6A
	
2024-08-12 20:39:55$GPGSV,2,2,05,50,00,000,34,1*53
	
2024-08-12 20:39:55$GAGSV,1,1,01,06,00,000,21,7*47
	
2024-08-12 20:39:56$GPGSV,2,1,05,12,00,000,23,23,00,000,25,25,00,000,20,32,00,000,27,1*67
	
2024-08-12 20:39:56$GPGSV,2,2,05,50,00,000,34,1*53
	
2024-08-12 20:39:56$GAGSV,1,1,01,06,00,000,19,7*4C
	
2024-08-12 20:39:57$GPGSV,2,1,05,12,00,000,23,23,00,000,25,25,00,000,20,32,00,000,23,1*63
	
2024-08-12 20:39:57$GPGSV,2,2,05,50,00,000,34,1*53
	
2024-08-12 20:39:57$GAGSV,1,1,01,06,00,000,19,7*4C
	
2024-08-12 20:39:58$GPGSV,2,1,05,12,00,000,21,23,00,000,21,25,00,000,21,32,00,000,23,1*64
	
2024-08-12 20:39:58$GPGSV,2,2,05,50,00,000,34,1*53
	
2024-08-12 20:39:58$GAGSV,1,1,01,06,00,000,19,7*4C
	
2024-08-12 20:39:59$GPGSV,2,1,05,12,00,000,24,23,00,000,25,25,00,000,24,32,00,000,26,1*65
	
2024-08-12 20:39:59$GPGSV,2,2,05,50,00,000,34,1*53
	
2024-08-12 20:39:59$GAGSV,1,1,01,06,00,000,20,7*46
	
2024-08-12 20:40:00$GPGSV,2,1,05,12,00,000,25,23,00,000,26,25,00,000,26,32,00,000,26,1*65
	
2024-08-12 20:40:00$GPGSV,2,2,05,50,00,000,34,1*53
	
2024-08-12 20:40:00$GAGSV,1,1,01,06,00,000,24,7*42
	
2024-08-12 20:40:01$GPGSV,2,1,05,12,00,000,22,23,00,000,25,25,00,000,22,32,00,000,24,1*67
	
2024-08-12 20:40:01$GPGSV,2,2,05,50,00,000,34,1*53
	
2024-08-12 20:40:01$GAGSV,1,1,01,06,00,000,24,7*42
	
2024-08-12 20:40:02$GPGSV,2,1,05,12,00,000,24,23,00,000,24,25,00,000,25,32,00,000,24,1*67
	
2024-08-12 20:40:02$GPGSV,2,2,05,50,00,000,34,1*53
	
2024-08-12 20:40:02$GAGSV,1,1,01,06,00,000,23,7*45
	
2024-08-12 20:40:03$GPGSV,2,1,05,12,00,000,26,23,00,000,27,25,00,000,27,32,00,000,26,1*66
	
2024-08-12 20:40:03$GPGSV,2,2,05,50,00,000,34,1*53
	
2024-08-12 20:40:03$GAGSV,1,1,01,06,00,000,26,7*40
	
2024-08-12 20:40:04$GPGSV,2,1,05,12,00,000,26,23,00,000,26,25,00,000,26,32,00,000,24,1*64
	
2024-08-12 20:40:04$GPGSV,2,2,05,50,00,000,34,1*53
	
2024-08-12 20:40:04$GAGSV,1,1,01,06,00,000,24,7*42
	
2024-08-12 20:40:05$GPGSV,2,1,05,12,00,000,23,23,00,000,22,25,00,000,22,32,00,000,23,1*66
	
2024-08-12 20:40:05$GPGSV,2,2,05,50,00,000,34,1*53
	
2024-08-12 20:40:05$GAGSV,1,1,01,06,00,000,24,7*42
	
2024-08-12 20:40:06$GPGSV,2,1,05,12,00,000,23,23,00,000,22,25,00,000,22,32,00,000,23,1*66
	
2024-08-12 20:40:06$GPGSV,2,2,05,50,00,000,34,1*53
	
2024-08-12 20:40:06$GAGSV,1,1,01,06,00,000,24,7*42
	
2024-08-12 20:40:07$GPGSV,2,1,05,12,00,000,23,23,00,000,22,25,00,000,22,32,00,000,23,1*66
	
2024-08-12 20:40:07$GPGSV,2,2,05,50,00,000,34,1*53
	
2024-08-12 20:40:07$GAGSV,1,1,01,06,00,000,24,7*42
	
2024-08-12 20:40:08$GPGSV,2,1,05,12,00,000,23,23,00,000,22,25,00,000,22,32,00,000,23,1*66
	
2024-08-12 20:40:08$GPGSV,2,2,05,50,00,000,34,1*53
	
2024-08-12 20:40:08$GAGSV,1,1,01,06,00,000,24,7*42
	
2024-08-12 20:40:09$GPGSV,2,1,05,12,00,000,23,23,00,000,18,25,00,000,22,32,00,000,23,1*6F
	
2024-08-12 20:40:09$GPGSV,2,2,05,50,00,000,34,1*53
	
2024-08-12 20:40:09$GAGSV,1,1,01,06,00,000,24,7*42
	
2024-08-12 20:40:10$GPGSV,2,1,05,12,00,000,18,23,00,000,22,25,00,000,17,32,00,000,19,1*61
	
2024-08-12 20:40:10$GPGSV,2,2,05,50,00,000,34,1*53
	
2024-08-12 20:40:10$GAGSV,1,1,01,06,00,000,24,7*42
	
2024-08-12 20:40:11$GPGSV,2,1,05,12,00,000,18,23,00,000,22,25,00,000,17,32,00,000,19,1*61
	
2024-08-12 20:40:11$GPGSV,2,2,05,50,00,000,34,1*53
	
2024-08-12 20:40:11$GAGSV,1,1,01,06,00,000,17,7*42
	
2024-08-12 20:40:12$GPGSV,2,1,05,12,00,000,20,23,00,000,22,25,00,000,21,32,00,000,21,1*64
	
2024-08-12 20:40:12$GPGSV,2,2,05,50,00,000,34,1*53
	
2024-08-12 20:40:12$GAGSV,1,1,01,06,00,000,17,7*42
	
2024-08-12 20:40:13$GPGSV,2,1,05,12,00,000,20,23,00,000,22,25,00,000,22,32,00,000,25,1*63
	
2024-08-12 20:40:13$GPGSV,2,2,05,50,00,000,34,1*53
	
2024-08-12 20:40:13$GAGSV,1,1,01,06,00,000,17,7*42
	
2024-08-12 20:40:14$GPGSV,2,1,05,12,00,000,21,23,00,000,22,25,00,000,22,32,00,000,26,1*61
	
2024-08-12 20:40:14$GPGSV,2,2,05,50,00,000,34,1*53
	
2024-08-12 20:40:14$GAGSV,1,1,01,06,00,000,17,7*42
	
2024-08-12 20:40:15$GPGSV,2,1,05,12,00,000,21,23,00,000,21,25,00,000,21,32,00,000,26,1*61
	
2024-08-12 20:40:15$GPGSV,2,2,05,50,00,000,34,1*53
	
2024-08-12 20:40:15$GAGSV,1,1,01,06,00,000,18,7*4D
	
2024-08-12 20:40:16$GPGSV,2,1,05,12,00,000,21,23,00,000,23,25,00,000,22,32,00,000,29,1*6F
	
2024-08-12 20:40:16$GPGSV,2,2,05,50,00,000,34,1*53
	
2024-08-12 20:40:16$GAGSV,1,1,01,06,00,000,18,7*4D
	
2024-08-12 20:40:17$GPGSV,2,1,06,10,00,000,28,12,00,000,22,23,00,000,22,25,00,000,23,1*6E
	
2024-08-12 20:40:17$GPGSV,2,2,06,32,00,000,28,50,00,000,34,1*6B
	
2024-08-12 20:40:17$GAGSV,1,1,01,06,00,000,21,7*47
	
2024-08-12 20:40:18$GPGSV,2,1,06,10,00,000,28,12,00,000,22,23,00,000,22,25,00,000,21,1*6C
	
2024-08-12 20:40:18$GPGSV,2,2,06,32,00,000,28,50,00,000,34,1*6B
	
2024-08-12 20:40:18$GAGSV,1,1,01,06,00,000,21,7*47
	
2024-08-12 20:40:19$GPGSV,2,1,06,10,00,000,28,12,00,000,22,23,00,000,22,25,00,000,21,1*6C
	
2024-08-12 20:40:19$GPGSV,2,2,06,32,00,000,28,50,00,000,34,1*6B
	
2024-08-12 20:40:19$GAGSV,1,1,01,06,00,000,20,7*46
	
2024-08-12 20:40:20$GPGSV,2,1,06,10,00,000,27,12,00,000,19,23,00,000,20,25,00,000,21,1*69
	
2024-08-12 20:40:20$GPGSV,2,2,06,32,00,000,27,50,00,000,34,1*64
	
2024-08-12 20:40:20$GAGSV,1,1,01,06,00,000,20,7*46
	
2024-08-12 20:40:21$GPGSV,2,1,06,10,00,000,27,12,00,000,22,23,00,000,21,25,00,000,20,1*61
	
2024-08-12 20:40:21$GPGSV,2,2,06,32,00,000,28,50,00,000,34,1*6B
	
2024-08-12 20:40:21$GAGSV,1,1,01,06,00,000,20,7*46
	
2024-08-12 20:40:22$GPGSV,2,1,06,10,00,000,27,12,00,000,21,23,00,000,22,25,00,000,22,1*63
	
2024-08-12 20:40:22$GPGSV,2,2,06,32,00,000,28,50,00,000,34,1*6B
	
2024-08-12 20:40:22$GAGSV,1,1,01,06,00,000,20,7*46
	
2024-08-12 20:40:23$GPGSV,2,1,06,10,00,000,27,12,00,000,23,23,00,000,24,25,00,000,23,1*66
	
2024-08-12 20:40:23$GPGSV,2,2,06,32,00,000,29,50,00,000,34,1*6A
	
2024-08-12 20:40:23$GAGSV,1,1,01,06,00,000,22,7*44
	
2024-08-12 20:40:24$GPGSV,2,1,06,10,00,000,29,12,00,000,23,23,00,000,22,25,00,000,21,1*6C
	
2024-08-12 20:40:24$GPGSV,2,2,06,32,00,000,28,50,00,000,34,1*6B
	
2024-08-12 20:40:24$GAGSV,1,1,01,06,00,000,22,7*44
	
2024-08-12 20:40:25$GPGSV,2,1,06,10,00,000,29,12,00,000,21,23,00,000,23,25,00,000,21,1*6F
	
2024-08-12 20:40:25$GPGSV,2,2,06,32,00,000,29,50,00,000,34,1*6A
	
2024-08-12 20:40:25$GAGSV,1,1,01,06,00,000,21,7*47
	
2024-08-12 20:40:26$GPGSV,2,1,06,10,00,000,29,12,00,000,21,23,00,000,23,25,00,000,21,1*6F
	
2024-08-12 20:40:26$GPGSV,2,2,06,32,00,000,24,50,00,000,34,1*67
	
2024-08-12 20:40:26$GAGSV,1,1,01,06,00,000,21,7*47
	
2024-08-12 20:40:27$GPGSV,2,1,06,10,00,000,27,12,00,000,21,23,00,000,23,25,00,000,21,1*61
	
2024-08-12 20:40:27$GPGSV,2,2,06,32,00,000,23,50,00,000,34,1*60
	
2024-08-12 20:40:27$GAGSV,1,1,01,06,00,000,21,7*47
	
2024-08-12 20:40:28$GPGSV,2,1,06,10,00,000,27,12,00,000,21,23,00,000,23,25,00,000,21,1*61
	
2024-08-12 20:40:28$GPGSV,2,2,06,32,00,000,23,50,00,000,34,1*60
	
2024-08-12 20:40:28$GAGSV,1,1,01,06,00,000,21,7*47
	
2024-08-12 20:40:29$GPGSV,2,1,06,10,00,000,27,12,00,000,21,23,00,000,23,25,00,000,21,1*61
	
2024-08-12 20:40:29$GPGSV,2,2,06,32,00,000,20,50,00,000,34,1*63
	
2024-08-12 20:40:29$GAGSV,1,1,01,06,00,000,21,7*47
	
2024-08-12 20:40:30$GPGSV,2,1,06,10,00,000,20,12,00,000,21,23,00,000,23,25,00,000,21,1*66
	
2024-08-12 20:40:30$GPGSV,2,2,06,32,00,000,20,50,00,000,34,1*63
	
2024-08-12 20:40:30$GAGSV,1,1,01,06,00,000,18,7*4D
	
2024-08-12 20:40:31$GPGSV,2,1,06,10,00,000,24,12,00,000,21,23,00,000,23,25,00,000,21,1*62
	
2024-08-12 20:40:31$GPGSV,2,2,06,32,00,000,21,50,00,000,34,1*62
	
2024-08-12 20:40:31$GAGSV,1,1,01,06,00,000,18,7*4D
	
2024-08-12 20:40:32$GPGSV,2,1,06,10,00,000,24,12,00,000,21,23,00,000,23,25,00,000,17,1*67
	
2024-08-12 20:40:32$GPGSV,2,2,06,32,00,000,21,50,00,000,34,1*62
	
2024-08-12 20:40:32$GAGSV,1,1,01,06,00,000,18,7*4D
	
2024-08-12 20:40:33$GPGSV,2,1,06,10,00,000,23,12,00,000,21,23,00,000,17,25,00,000,17,1*67
	
2024-08-12 20:40:33$GPGSV,2,2,06,32,00,000,22,50,00,000,34,1*61
	
2024-08-12 20:40:33$GAGSV,1,1,01,06,00,000,19,7*4C
	
2024-08-12 20:40:34$GPGSV,2,1,06,10,00,000,24,12,00,000,21,23,00,000,17,25,00,000,19,1*6E
	
2024-08-12 20:40:34$GPGSV,2,2,06,32,00,000,22,50,00,000,34,1*61
	
2024-08-12 20:40:34$GAGSV,1,1,01,06,00,000,19,7*4C
	
2024-08-12 20:40:35$GPGSV,2,1,06,10,00,000,24,12,00,000,21,23,00,000,17,25,00,000,19,1*6E
	
2024-08-12 20:40:35$GPGSV,2,2,06,32,00,000,21,50,00,000,34,1*62
	
2024-08-12 20:40:35$GAGSV,1,1,01,06,00,000,19,7*4C
	
2024-08-12 20:40:36$GPGSV,2,1,06,10,00,000,21,12,00,000,21,23,00,000,17,25,00,000,19,1*6B
	
2024-08-12 20:40:36$GPGSV,2,2,06,32,00,000,22,50,00,000,34,1*61
	
2024-08-12 20:40:36$GAGSV,1,1,01,06,00,000,19,7*4C
	
2024-08-12 20:40:37$GPGSV,2,1,06,10,00,000,25,12,00,000,16,23,00,000,19,25,00,000,19,1*65
	
2024-08-12 20:40:37$GPGSV,2,2,06,32,00,000,25,50,00,000,34,1*66
	
2024-08-12 20:40:37$GAGSV,1,1,01,06,00,000,18,7*4D
	
2024-08-12 20:40:38$GPGSV,2,1,06,10,00,000,26,12,00,000,22,23,00,000,23,25,00,000,19,1*68
	
2024-08-12 20:40:38$GPGSV,2,2,06,32,00,000,24,50,00,000,34,1*67
	
2024-08-12 20:40:38$GAGSV,1,1,01,06,00,000,18,7*4D
	
2024-08-12 20:40:39$GPGSV,2,1,06,10,00,000,26,12,00,000,22,23,00,000,21,25,00,000,22,1*62
	
2024-08-12 20:40:39$GPGSV,2,2,06,32,00,000,25,50,00,000,34,1*66
	
2024-08-12 20:40:39$GAGSV,1,1,01,06,00,000,21,7*47
	
2024-08-12 20:40:40$GPGSV,2,1,06,10,00,000,27,12,00,000,21,23,00,000,23,25,00,000,22,1*62
	
2024-08-12 20:40:40$GPGSV,2,2,06,32,00,000,26,50,00,000,34,1*65
	
2024-08-12 20:40:40$GAGSV,1,1,01,06,00,000,24,7*42
	
2024-08-12 20:40:41$GPGSV,2,1,05,10,00,000,25,12,00,000,22,23,00,000,23,25,00,000,22,1*60
	
2024-08-12 20:40:41$GPGSV,2,2,05,32,00,000,26,1*54
	
2024-08-12 20:40:41$GAGSV,1,1,01,06,00,000,24,7*42
	
2024-08-12 20:40:42$GPGSV,2,1,05,10,00,000,27,12,00,000,22,23,00,000,20,25,00,000,21,1*62
	
2024-08-12 20:40:42$GPGSV,2,2,05,32,00,000,27,1*55
	
2024-08-12 20:40:42$GAGSV,1,1,01,06,00,000,22,7*44
	
2024-08-12 20:40:43$GPGSV,2,1,05,10,00,000,27,12,00,000,22,23,00,000,22,25,00,000,21,1*60
	
2024-08-12 20:40:43$GPGSV,2,2,05,32,00,000,27,1*55
	
2024-08-12 20:40:43$GAGSV,1,1,01,06,00,000,22,7*44
	
2024-08-12 20:40:44$GPGSV,2,1,05,10,00,000,31,12,00,000,22,23,00,000,26,25,00,000,23,1*61
	
2024-08-12 20:40:44$GPGSV,2,2,05,32,00,000,30,1*53
	
2024-08-12 20:40:44$GAGSV,1,1,01,06,00,000,26,7*40
	
2024-08-12 20:40:45$GPGSV,2,1,05,10,00,000,31,12,00,000,23,23,00,000,25,25,00,000,25,1*65
	
2024-08-12 20:40:45$GPGSV,2,2,05,32,00,000,30,1*53
	
2024-08-12 20:40:45$GAGSV,1,1,01,06,00,000,25,7*43
	
2024-08-12 20:40:46$GPGSV,2,1,05,10,00,000,30,12,00,000,23,23,00,000,24,25,00,000,24,1*64
	
2024-08-12 20:40:46$GPGSV,2,2,05,32,00,000,30,1*53
	
2024-08-12 20:40:46$GAGSV,1,1,01,06,00,000,23,7*45
	
2024-08-12 20:40:47$GPGSV,2,1,05,10,00,000,26,12,00,000,23,23,00,000,24,25,00,000,22,1*65
	
2024-08-12 20:40:47$GPGSV,2,2,05,32,00,000,24,1*56
	
2024-08-12 20:40:47$GAGSV,1,1,01,06,00,000,23,7*45
	
2024-08-12 20:40:48$GPGSV,2,1,05,10,00,000,26,12,00,000,21,23,00,000,24,25,00,000,22,1*67
	
2024-08-12 20:40:48$GPGSV,2,2,05,32,00,000,23,1*51
	
2024-08-12 20:40:48$GAGSV,1,1,01,06,00,000,20,7*46
	
2024-08-12 20:40:49$GPGSV,2,1,05,10,00,000,25,12,00,000,21,23,00,000,24,25,00,000,22,1*64
	
2024-08-12 20:40:49$GPGSV,2,2,05,32,00,000,24,1*56
	
2024-08-12 20:40:49$GAGSV,1,1,01,06,00,000,22,7*44
	
2024-08-12 20:40:50$GPGSV,2,1,05,10,00,000,24,12,00,000,21,23,00,000,24,25,00,000,18,1*6C
	
2024-08-12 20:40:50$GPGSV,2,2,05,32,00,000,24,1*56
	
2024-08-12 20:40:50$GAGSV,1,1,01,06,00,000,22,7*44
	
2024-08-12 20:40:51$GPGSV,2,1,05,10,00,000,22,12,00,000,21,23,00,000,18,25,00,000,18,1*65
	
2024-08-12 20:40:51$GPGSV,2,2,05,32,00,000,24,1*56
	
2024-08-12 20:40:51$GAGSV,1,1,01,06,00,000,22,7*44
	
2024-08-12 20:40:52$GPGSV,2,1,05,10,00,000,24,12,00,000,21,23,00,000,18,25,00,000,18,1*63
	
2024-08-12 20:40:52$GPGSV,2,2,05,32,00,000,21,1*53
	
2024-08-12 20:40:52$GAGSV,1,1,01,06,00,000,22,7*44
	
2024-08-12 20:40:53$GPGSV,2,1,05,10,00,000,23,12,00,000,17,23,00,000,18,25,00,000,18,1*61
	
2024-08-12 20:40:53$GPGSV,2,2,05,32,00,000,22,1*50
	
2024-08-12 20:40:53$GAGSV,1,1,01,06,00,000,19,7*4C
	
2024-08-12 20:40:54$GPGSV,2,1,05,10,00,000,27,12,00,000,17,23,00,000,19,25,00,000,19,1*65
	
2024-08-12 20:40:54$GPGSV,2,2,05,32,00,000,25,1*57
	
2024-08-12 20:40:54$GAGSV,1,1,01,06,00,000,23,7*45
	
2024-08-12 20:40:55$GPGSV,2,1,05,10,00,000,22,12,00,000,17,23,00,000,19,25,00,000,19,1*60
	
2024-08-12 20:40:55$GPGSV,2,2,05,32,00,000,25,1*57
	
2024-08-12 20:40:55$GAGSV,1,1,01,06,00,000,23,7*45
	
2024-08-12 20:40:56$GPGSV,2,1,05,10,00,000,23,12,00,000,20,23,00,000,19,25,00,000,19,1*65
	
2024-08-12 20:40:56$GPGSV,2,2,05,32,00,000,21,1*53
	
2024-08-12 20:40:56$GAGSV,1,1,01,06,00,000,21,7*47
	
2024-08-12 20:40:57$GPGSV,2,1,05,10,00,000,24,12,00,000,20,23,00,000,19,25,00,000,19,1*62
	
2024-08-12 20:40:57$GPGSV,2,2,05,32,00,000,24,1*56
	
2024-08-12 20:40:57$GAGSV,1,1,01,06,00,000,21,7*47
	
2024-08-12 20:40:58$GPGSV,2,1,05,10,00,000,24,12,00,000,20,23,00,000,21,25,00,000,21,1*62
	
2024-08-12 20:40:58$GPGSV,2,2,05,32,00,000,24,1*56
	
2024-08-12 20:40:58$GAGSV,1,1,01,06,00,000,21,7*47
	
2024-08-12 20:40:59$GPGSV,2,1,05,10,00,000,21,12,00,000,21,23,00,000,21,25,00,000,21,1*66
	
2024-08-12 20:40:59$GPGSV,2,2,05,32,00,000,22,1*50
	
2024-08-12 20:40:59$GAGSV,1,1,01,06,00,000,21,7*47
	
2024-08-12 20:41:00$GPGSV,2,1,05,10,00,000,21,12,00,000,21,23,00,000,21,25,00,000,21,1*66
	
2024-08-12 20:41:00$GPGSV,2,2,05,32,00,000,22,1*50
	
2024-08-12 20:41:00$GAGSV,1,1,01,06,00,000,21,7*47
	
2024-08-12 20:41:01$GPGSV,2,1,05,10,00,000,21,12,00,000,21,23,00,000,18,25,00,000,21,1*6C
	
2024-08-12 20:41:01$GPGSV,2,2,05,32,00,000,22,1*50
	
2024-08-12 20:41:01$GAGSV,1,1,01,06,00,000,21,7*47
	
2024-08-12 20:41:02$GPGSV,2,1,05,10,00,000,21,12,00,000,21,23,00,000,18,25,00,000,21,1*6C
	
2024-08-12 20:41:02$GPGSV,2,2,05,32,00,000,21,1*53
	
2024-08-12 20:41:02$GAGSV,1,1,01,06,00,000,21,7*47
	
2024-08-12 20:41:03$GPGSV,2,1,05,10,00,000,18,12,00,000,21,23,00,000,18,25,00,000,16,1*62
	
2024-08-12 20:41:03$GPGSV,2,2,05,32,00,000,23,1*51
	
2024-08-12 20:41:03$GAGSV,1,1,01,06,00,000,20,7*46
	
2024-08-12 20:41:04$GPGSV,2,1,05,10,00,000,26,12,00,000,18,23,00,000,20,25,00,000,21,1*6A
	
2024-08-12 20:41:04$GPGSV,2,2,05,32,00,000,26,1*54
	
2024-08-12 20:41:04$GAGSV,1,1,01,06,00,000,20,7*46
	
2024-08-12 20:41:05$GPGSV,2,1,05,10,00,000,24,12,00,000,18,23,00,000,20,25,00,000,22,1*6B
	
2024-08-12 20:41:05$GPGSV,2,2,05,32,00,000,24,1*56
	
2024-08-12 20:41:05$GAGSV,1,1,01,06,00,000,21,7*47
	
2024-08-12 20:41:06$GPGSV,2,1,05,10,00,000,25,12,00,000,21,23,00,000,21,25,00,000,22,1*61
	
2024-08-12 20:41:06$GPGSV,2,2,05,32,00,000,25,1*57
	
2024-08-12 20:41:06$GAGSV,1,1,01,06,00,000,21,7*47
	
2024-08-12 20:41:07$GPGSV,2,1,05,10,00,000,23,12,00,000,21,23,00,000,21,25,00,000,22,1*67
	
2024-08-12 20:41:07$GPGSV,2,2,05,32,00,000,22,1*50
	
2024-08-12 20:41:07$GAGSV,1,1,01,06,00,000,21,7*47
	
2024-08-12 20:41:08$GPGSV,2,1,05,10,00,000,21,12,00,000,21,23,00,000,20,25,00,000,22,1*64
	
2024-08-12 20:41:08$GPGSV,2,2,05,32,00,000,22,1*50
	
2024-08-12 20:41:08$GAGSV,1,1,01,06,00,000,21,7*47
	
2024-08-12 20:41:09$GPGSV,2,1,05,10,00,000,21,12,00,000,21,23,00,000,20,25,00,000,22,1*64
	
2024-08-12 20:41:09$GPGSV,2,2,05,32,00,000,22,1*50
	
2024-08-12 20:41:09$GAGSV,1,1,01,06,00,000,21,7*47
	
2024-08-12 20:41:10$GPGSV,2,1,05,10,00,000,21,12,00,000,21,23,00,000,20,25,00,000,22,1*64
	
2024-08-12 20:41:10$GPGSV,2,2,05,32,00,000,22,1*50
	
2024-08-12 20:41:10$GAGSV,1,1,01,06,00,000,21,7*47
	
2024-08-12 20:41:11$GPGSV,2,1,05,10,00,000,21,12,00,000,21,23,00,000,20,25,00,000,22,1*64
	
2024-08-12 20:41:11$GPGSV,2,2,05,32,00,000,22,1*50
	
2024-08-12 20:41:11$GAGSV,1,1,01,06,00,000,18,7*4D
	
2024-08-12 20:41:12$GPGSV,2,1,05,10,00,000,21,12,00,000,21,23,00,000,20,25,00,000,22,1*64
	
2024-08-12 20:41:12$GPGSV,2,2,05,32,00,000,22,1*50
	
2024-08-12 20:41:12$GAGSV,1,1,01,06,00,000,18,7*4D
	
2024-08-12 20:41:13$GPGSV,2,1,05,10,00,000,21,12,00,000,21,23,00,000,20,25,00,000,22,1*64
	
2024-08-12 20:41:13$GPGSV,2,2,05,32,00,000,22,1*50
	
2024-08-12 20:41:13$GAGSV,1,1,01,06,00,000,18,7*4D
	
2024-08-12 20:41:14$GPGSV,2,1,05,10,00,000,21,12,00,000,21,23,00,000,20,25,00,000,22,1*64
	
2024-08-12 20:41:14$GPGSV,2,2,05,32,00,000,22,1*50
	
2024-08-12 20:41:14$GAGSV,1,1,01,06,00,000,18,7*4D
	
2024-08-12 20:41:15$GPGSV,2,1,05,10,00,000,21,12,00,000,21,23,00,000,20,25,00,000,22,1*64
	
2024-08-12 20:41:15$GPGSV,2,2,05,32,00,000,22,1*50
	
2024-08-12 20:41:15$GAGSV,1,1,01,06,00,000,18,7*4D
	
2024-08-12 20:41:16$GPGSV,2,1,05,10,00,000,21,12,00,000,21,23,00,000,20,25,00,000,22,1*64
	
2024-08-12 20:41:16$GPGSV,2,2,05,32,00,000,22,1*50
	
2024-08-12 20:41:16$GAGSV,1,1,01,06,00,000,18,7*4D
	
2024-08-12 20:41:17$GPGSV,2,1,05,10,00,000,21,12,00,000,21,23,00,000,20,25,00,000,13,1*66
	
2024-08-12 20:41:17$GPGSV,2,2,05,32,00,000,22,1*50
	
2024-08-12 20:41:17$GAGSV,1,1,01,06,00,000,18,7*4D
	
2024-08-12 20:41:18$GPGSV,2,1,05,10,00,000,17,12,00,000,15,23,00,000,20,25,00,000,23,1*67
	
2024-08-12 20:41:18$GPGSV,2,2,05,32,00,000,17,1*56
	
2024-08-12 20:41:18$GAGSV,1,1,01,06,00,000,20,7*46
	
2024-08-12 20:41:19$GPGSV,2,1,05,10,00,000,26,12,00,000,22,23,00,000,15,25,00,000,24,1*60
	
2024-08-12 20:41:19$GPGSV,2,2,05,32,00,000,23,1*51
	
2024-08-12 20:41:19$GAGSV,1,1,01,06,00,000,24,7*42
	
2024-08-12 20:41:20$GPGSV,2,1,05,10,00,000,28,12,00,000,24,23,00,000,26,25,00,000,25,1*69
	
2024-08-12 20:41:20$GPGSV,2,2,05,32,00,000,26,1*54
	
2024-08-12 20:41:20$GAGSV,1,1,01,06,00,000,25,7*43
	
2024-08-12 20:41:21$GPGSV,2,1,05,10,00,000,32,12,00,000,27,23,00,000,29,25,00,000,29,1*62
	
2024-08-12 20:41:21$GPGSV,2,2,05,32,00,000,30,1*53
	
2024-08-12 20:41:21$GAGSV,1,1,01,06,00,000,28,7*4E
	
2024-08-12 20:41:22$GPGSV,2,1,05,10,00,000,36,12,00,000,31,23,00,000,33,25,00,000,34,1*66
	
2024-08-12 20:41:22$GPGSV,2,2,05,32,00,000,34,1*57
	
2024-08-12 20:41:22$GAGSV,1,1,01,06,00,000,32,7*45
	
2024-08-12 20:41:23$GPGSV,2,1,05,10,00,000,32,12,00,000,28,23,00,000,30,25,00,000,30,1*6D
	
2024-08-12 20:41:23$GPGSV,2,2,05,32,00,000,31,1*52
	
2024-08-12 20:41:23$GAGSV,1,1,01,06,00,000,29,7*4F
	
2024-08-12 20:41:24$GPGSV,2,1,05,10,00,000,28,12,00,000,26,23,00,000,27,25,00,000,27,1*68
	
2024-08-12 20:41:24$GPGSV,2,2,05,32,00,000,28,1*5A
	
2024-08-12 20:41:24$GAGSV,1,1,01,06,00,000,26,7*40
	
2024-08-12 20:41:25$GPGSV,2,1,05,10,00,000,33,12,00,000,28,23,00,000,30,25,00,000,30,1*6C
	
2024-08-12 20:41:25$GPGSV,2,2,05,32,00,000,31,1*52
	
2024-08-12 20:41:25$GAGSV,1,1,01,06,00,000,29,7*4F
	
2024-08-12 20:41:26$GPGSV,2,1,05,10,00,000,35,12,00,000,30,23,00,000,32,25,00,000,33,1*62
	
2024-08-12 20:41:26$GPGSV,2,2,05,32,00,000,34,1*57
	
2024-08-12 20:41:26$GAGSV,1,1,01,06,00,000,32,7*45
	
2024-08-12 20:41:27$GPGSV,2,1,05,10,00,000,34,12,00,000,30,23,00,000,32,25,00,000,32,1*62
	
2024-08-12 20:41:27$GPGSV,2,2,05,32,00,000,33,1*50
	
2024-08-12 20:41:27$GAGSV,1,1,01,06,00,000,31,7*46
	
2024-08-12 20:41:28$GPGSV,2,1,05,10,00,000,34,12,00,000,30,23,00,000,31,25,00,000,31,1*62
	
2024-08-12 20:41:28$GPGSV,2,2,05,32,00,000,33,1*50
	
2024-08-12 20:41:28$GAGSV,1,1,01,06,00,000,30,7*47
	
2024-08-12 20:41:29$GPGSV,2,1,05,10,00,000,36,12,00,000,31,23,00,000,32,25,00,000,33,1*60
	
2024-08-12 20:41:29$GPGSV,2,2,05,32,00,000,34,1*57
	
2024-08-12 20:41:29$GAGSV,1,1,01,06,00,000,32,7*45
	
2024-08-12 20:41:30$GPGSV,2,1,05,10,00,000,35,12,00,000,31,23,00,000,32,25,00,000,33,1*63
	
2024-08-12 20:41:30$GPGSV,2,2,05,32,00,000,33,1*50
	
2024-08-12 20:41:30$GAGSV,1,1,01,06,00,000,31,7*46
	
2024-08-12 20:41:31$GPGSV,2,1,05,10,00,000,34,12,00,000,30,23,00,000,31,25,00,000,31,1*62
	
2024-08-12 20:41:31$GPGSV,2,2,05,32,00,000,32,1*51
	
2024-08-12 20:41:31$GAGSV,1,1,01,06,00,000,30,7*47
	
2024-08-12 20:41:32$GPGSV,2,1,06,10,00,000,35,12,00,000,29,23,00,000,32,25,00,000,32,1*68
	
2024-08-12 20:41:32$GPGSV,2,2,06,28,00,000,28,32,00,000,33,1*63
	
2024-08-12 20:41:32$GAGSV,1,1,01,06,00,000,30,7*47
	
2024-08-12 20:41:33$GPGSV,2,1,06,10,00,000,35,12,00,000,30,23,00,000,32,25,00,000,32,1*60
	
2024-08-12 20:41:33$GPGSV,2,2,06,28,00,000,30,32,00,000,34,1*6D
	
2024-08-12 20:41:33$GAGSV,1,1,01,06,00,000,31,7*46
	
2024-08-12 20:41:34$GPGSV,4,1,16,10,81,018,36,12,26,073,30,23,50,129,33,25,39,112,32,1*62
	
2024-08-12 20:41:34$GPGSV,4,2,16,28,52,233,31,32,54,333,34,02,04,320,,03,00,000,,1*68
	
2024-08-12 20:41:34$GPGSV,4,3,16,08,00,000,,15,00,000,,16,00,000,,17,00,000,,1*69
	
2024-08-12 20:41:34$GPGSV,4,4,16,18,02,171,,19,00,000,,21,14,307,,22,00,000,,1*65
	
2024-08-12 20:41:34$GLGSV,2,1,05,06,49,033,,15,02,025,,05,09,094,,07,30,327,,1*77
	
2024-08-12 20:41:34$GLGSV,2,2,05,04,00,000,,1*49
	
2024-08-12 20:41:34$GAGSV,1,1,01,06,00,000,32,7*45
	
2024-08-12 20:41:35$GPGSV,3,1,10,10,78,309,36,12,37,075,30,23,57,147,32,25,48,125,32,1*6C
	
2024-08-12 20:41:35$GPGSV,3,2,10,28,42,244,31,32,48,324,34,18,02,180,,21,07,309,,1*6B
	
2024-08-12 20:41:35$GPGSV,3,3,10,24,16,047,,31,09,233,,1*6E
	
2024-08-12 20:41:35$GLGSV,2,1,05,09,54,181,29,06,55,025,,15,07,026,,05,18,099,,1*7F
	
2024-08-13 17:18:50$GLGSV,2,2,05,07,26,324,,1*4B
	
2024-08-13 17:18:50$GAGSV,1,1,01,06,00,000,32,7*45
	
2024-08-13 17:18:50$GBGSV,1,1,04,01,41,130,,04,28,116,,16,70,289,,20,32,317,,1*79
	
2024-08-13 17:18:50$GPGSA,A,3,10,12,23,25,28,32,,,,,,,3.8,1.4,3.6,1*2B
	
2024-08-13 17:18:50$GPVTG,,T,,M,0.0,N,0.0,K,A*23
	
2024-08-13 17:18:50$GPDTM,W84,,0000.000000,N,00000.000000,E,0.000,W84*5F
	
2024-08-13 17:18:50$GPRMC,091850.00,A,3029.472358,N,11430.076052,E,0.0,,130824,3.5,W,A,V*7A
	
2024-08-13 17:18:50$GPGNS,091850.00,3029.472358,N,11430.076052,E,ANNNNN,06,1.4,,,,,V*03
	
2024-08-13 17:18:50$GPGGA,091850.00,3029.472358,N,11430.076052,E,1,06,1.4,,,,,,*5C
	
2024-08-13 17:18:50$GPGSV,3,1,10,10,78,309,36,12,37,075,30,23,57,147,33,25,48,125,33,1*6C
	
2024-08-13 17:18:50$GPGSV,3,2,10,28,42,244,30,32,48,324,34,18,02,180,,21,07,309,,1*6A
	
2024-08-13 17:18:50$GPGSV,3,3,10,24,16,047,,31,09,233,,1*6E
	
2024-08-13 17:18:50$GLGSV,2,1,05,09,54,181,29,06,55,025,,15,07,026,,05,18,099,,1*7F
	
2024-08-13 17:18:50$GLGSV,2,2,05,07,26,324,,1*4B
	
2024-08-13 17:18:50$GAGSV,1,1,01,06,00,000,33,7*44
	
2024-08-13 17:18:50$GBGSV,1,1,04,20,32,317,25,16,70,289,28,01,41,130,,04,28,116,,1*74
	
2024-08-13 17:18:50$GPGSA,A,3,10,12,23,25,28,32,,,,,,,1.7,1.4,1.0,1*22
	
2024-08-13 17:18:50$GPVTG,,T,,M,0.0,N,0.0,K,A*23
	
2024-08-13 17:18:50$GPDTM,W84,,0000.000000,N,00000.000000,E,0.000,W84*5F
	
2024-08-13 17:18:50$GPRMC,091851.00,A,3029.471118,N,11430.074652,E,0.0,,130824,3.5,W,A,V*7A
	
2024-08-13 17:18:50$GPGNS,091851.00,3029.471118,N,11430.074652,E,ANNNNN,06,1.4,,,,,V*03
	
2024-08-13 17:18:50$GPGGA,091851.00,3029.471118,N,11430.074652,E,1,06,1.4,,,,,,*5C
	
2024-08-13 17:18:51$GPGSV,3,1,10,10,78,309,36,12,37,075,30,23,57,147,33,25,48,125,33,1*6C
	
2024-08-13 17:18:51$GPGSV,3,2,10,28,42,244,30,32,48,324,34,18,02,180,,21,07,309,,1*6A
	
2024-08-13 17:18:51$GPGSV,3,3,10,24,16,047,,31,09,233,,1*6E
	
2024-08-13 17:18:51$GLGSV,2,1,05,09,54,181,31,07,26,324,25,06,55,025,,15,07,026,,1*7B
	
2024-08-13 17:18:51$GLGSV,2,2,05,05,18,099,,1*41
	
2024-08-13 17:18:51$GAGSV,1,1,01,06,00,000,32,7*45
	
2024-08-13 17:18:51$GQGSV,1,1,02,02,00,000,28,04,00,000,32,1*6A
	
2024-08-13 17:18:51$GBGSV,1,1,04,20,32,317,25,16,70,289,27,01,41,130,,04,28,116,,1*7B
	
2024-08-13 17:18:51$GPGSA,A,3,10,12,23,25,28,32,,,,,,,1.7,1.4,1.0,1*22
	
2024-08-13 17:18:51$GPVTG,,T,,M,0.0,N,0.0,K,A*23
	
2024-08-13 17:18:51$GPDTM,W84,,0000.000000,N,00000.000000,E,0.000,W84*5F
	
2024-08-13 17:18:51$GPRMC,091852.00,A,3029.471183,N,11430.076162,E,0.0,,130824,3.5,W,A,V*7D
	
2024-08-13 17:18:51$GPGNS,091852.00,3029.471183,N,11430.076162,E,ANNNNN,06,1.4,,,,,V*04
	
2024-08-13 17:18:51$GPGGA,091852.00,3029.471183,N,11430.076162,E,1,06,1.4,,,,,,*5B
	
2024-08-13 17:18:52$GPGSV,3,1,10,10,78,309,35,12,37,075,30,23,57,147,31,25,48,125,32,1*6C
	
2024-08-13 17:18:52$GPGSV,3,2,10,28,42,244,30,31,09,233,21,32,48,324,33,18,02,180,,1*69
	
2024-08-13 17:18:52$GPGSV,3,3,10,21,07,309,,24,16,047,,1*69
	
2024-08-13 17:18:52$GLGSV,2,1,05,09,54,181,29,07,26,324,23,06,55,025,,15,07,026,,1*74
	
2024-08-13 17:18:52$GLGSV,2,2,05,05,18,099,,1*41
	
2024-08-13 17:18:52$GAGSV,1,1,01,06,00,000,31,7*46
	
2024-08-13 17:18:52$GQGSV,1,1,02,02,00,000,28,04,00,000,31,1*69
	
2024-08-13 17:18:52$GBGSV,1,1,04,20,32,317,27,16,70,289,28,01,41,130,,04,28,116,,1*76
	
2024-08-13 17:18:52$GPGSA,A,3,10,12,23,25,28,32,,,,,,,1.7,1.4,1.0,1*22
	
2024-08-13 17:18:52$GPVTG,,T,,M,0.0,N,0.0,K,A*23
	
2024-08-13 17:18:52$GPDTM,W84,,0000.000000,N,00000.000000,E,0.000,W84*5F
	
2024-08-13 17:18:52$GPRMC,091853.00,A,3029.471423,N,11430.076585,E,0.0,,130824,3.5,W,A,V*7E
	
2024-08-13 17:18:52$GPGNS,091853.00,3029.471423,N,11430.076585,E,ANNNNN,06,1.4,,,,,V*07
	
2024-08-13 17:18:52$GPGGA,091853.00,3029.471423,N,11430.076585,E,1,06,1.4,,,,,,*58
	
2024-08-13 17:18:53$GPGSV,3,1,10,10,78,309,35,12,37,075,30,23,57,147,32,25,48,125,31,1*6C
	
2024-08-13 17:18:53$GPGSV,3,2,10,28,42,244,29,31,09,233,21,32,48,324,33,18,02,180,,1*61
	
2024-08-13 17:18:53$GPGSV,3,3,10,21,07,309,,24,16,047,,1*69
	
2024-08-13 17:18:53$GLGSV,2,1,05,09,54,181,30,07,26,324,23,06,55,025,,15,07,026,,1*7C
	
2024-08-13 17:18:53$GLGSV,2,2,05,05,18,099,,1*41
	
2024-08-13 17:18:53$GAGSV,1,1,01,06,00,000,31,7*46
	
2024-08-13 17:18:53$GQGSV,1,1,02,02,00,000,28,04,00,000,31,1*69
	
2024-08-13 17:18:53$GBGSV,1,1,04,20,32,317,26,16,70,289,28,01,41,130,,04,28,116,,1*77
	
2024-08-13 17:18:53$GPGSA,A,3,10,12,23,25,28,32,,,,,,,1.7,1.4,1.0,1*22
	
2024-08-13 17:18:53$GPVTG,,T,,M,0.0,N,0.0,K,A*23
	
2024-08-13 17:18:53$GPDTM,W84,,0000.000000,N,00000.000000,E,0.000,W84*5F
	
2024-08-13 17:18:53$GPRMC,091854.00,A,3029.471505,N,11430.076250,E,0.0,,130824,3.5,W,A,V*73
	
2024-08-13 17:18:53$GPGNS,091854.00,3029.471505,N,11430.076250,E,ANNNNN,06,1.4,,,,,V*0A
	
2024-08-13 17:18:53$GPGGA,091854.00,3029.471505,N,11430.076250,E,1,06,1.4,,,,,,*55
	
2024-08-13 17:18:54$GPGSV,3,1,10,10,78,309,35,12,37,075,30,23,57,147,32,24,16,047,18,1*68
	
2024-08-13 17:18:54$GPGSV,3,2,10,25,48,125,32,28,42,244,30,31,09,233,21,32,48,324,33,1*67
	
2024-08-13 17:18:54$GPGSV,3,3,10,18,02,180,,21,07,309,,1*69
	
2024-08-13 17:18:54$GLGSV,2,1,05,09,54,181,30,07,26,324,21,06,55,025,,15,07,026,,1*7E
	
2024-08-13 17:18:54$GLGSV,2,2,05,05,18,099,,1*41
	
2024-08-13 17:18:54$GAGSV,1,1,01,06,00,000,32,7*45
	
2024-08-13 17:18:54$GQGSV,1,1,02,02,00,000,26,04,00,000,31,1*67
	
2024-08-13 17:18:54$GBGSV,1,1,04,20,32,317,28,16,70,289,28,01,41,130,,04,28,116,,1*79
	
2024-08-13 17:18:54$GPGSA,A,3,10,12,23,24,25,28,32,,,,,,1.5,1.2,0.9,1*28
	
2024-08-13 17:18:54$GPVTG,,T,,M,0.0,N,0.0,K,A*23
	
2024-08-13 17:18:54$GPDTM,W84,,0000.000000,N,00000.000000,E,0.000,W84*5F
	
2024-08-13 17:18:54$GPRMC,091855.00,A,3029.471223,N,11430.076267,E,0.0,,130824,3.5,W,A,V*75
	
2024-08-13 17:18:54$GPGNS,091855.00,3029.471223,N,11430.076267,E,ANNNNN,07,1.2,,,,,V*0B
	
2024-08-13 17:18:54$GPGGA,091855.00,3029.471223,N,11430.076267,E,1,07,1.2,,,,,,*54
	
2024-08-13 17:18:55$GPGSV,3,1,10,10,78,309,35,12,37,075,29,23,57,147,32,24,16,047,18,1*60
	
2024-08-13 17:18:55$GPGSV,3,2,10,25,48,125,32,28,42,244,30,31,09,233,21,32,48,324,33,1*67
	
2024-08-13 17:18:55$GPGSV,3,3,10,18,02,180,,21,07,309,,1*69
	
2024-08-13 17:18:55$GLGSV,2,1,05,09,54,181,30,07,26,324,21,06,55,025,,15,07,026,,1*7E
	
2024-08-13 17:18:55$GLGSV,2,2,05,05,18,099,,1*41
	
2024-08-13 17:18:55$GAGSV,1,1,01,06,00,000,31,7*46
	
2024-08-13 17:18:55$GQGSV,1,1,02,02,00,000,26,04,00,000,31,1*67
	
2024-08-13 17:18:55$GBGSV,1,1,04,20,32,317,26,16,70,289,28,01,41,130,,04,28,116,,1*77
	
2024-08-13 17:18:55$GPGSA,A,3,10,12,23,24,25,28,32,,,,,,1.5,1.2,0.9,1*28
	
2024-08-13 17:18:55$GPVTG,,T,,M,0.0,N,0.0,K,A*23
	
2024-08-13 17:18:55$GPDTM,W84,,0000.000000,N,00000.000000,E,0.000,W84*5F
	
2024-08-13 17:18:55$GPRMC,091856.00,A,3029.471513,N,11430.076513,E,0.0,,130824,3.5,W,A,V*76
	
2024-08-13 17:18:55$GPGNS,091856.00,3029.471513,N,11430.076513,E,ANNNNN,07,1.2,,,,,V*08
	
2024-08-13 17:18:55$GPGGA,091856.00,3029.471513,N,11430.076513,E,1,07,1.2,,,,,,*57
	
2024-08-13 17:18:56$GPGSV,3,1,10,10,78,309,34,12,37,075,30,23,57,147,31,24,16,047,17,1*65
	
2024-08-13 17:18:56$GPGSV,3,2,10,25,48,125,32,28,42,244,30,31,09,233,21,32,48,324,32,1*66
	
2024-08-13 17:18:56$GPGSV,3,3,10,18,02,180,,21,07,309,,1*69
	
2024-08-13 17:18:56$GLGSV,2,1,05,09,54,181,29,07,26,324,21,06,55,025,,15,07,026,,1*76
	
2024-08-13 17:18:56$GLGSV,2,2,05,05,18,099,,1*41
	
2024-08-13 17:18:56$GAGSV,1,1,01,06,00,000,31,7*46
	
2024-08-13 17:18:56$GQGSV,1,1,02,02,00,000,26,04,00,000,30,1*66
	
2024-08-13 17:18:56$GBGSV,1,1,04,20,32,317,26,16,70,289,27,01,41,130,,04,28,116,,1*78
	
2024-08-13 17:18:56$GPGSA,A,3,10,12,23,24,25,28,32,,,,,,1.5,1.2,0.9,1*28
	
2024-08-13 17:18:56$GPVTG,,T,,M,0.0,N,0.0,K,A*23
	
2024-08-13 17:18:56$GPDTM,W84,,0000.000000,N,00000.000000,E,0.000,W84*5F
	
2024-08-13 17:18:56$GPRMC,091857.00,A,3029.471516,N,11430.076510,E,0.0,,130824,3.5,W,A,V*71
	
2024-08-13 17:18:56$GPGNS,091857.00,3029.471516,N,11430.076510,E,ANNNNN,07,1.2,,,,,V*0F
	
2024-08-13 17:18:56$GPGGA,091857.00,3029.471516,N,11430.076510,E,1,07,1.2,,,,,,*50
	
2024-08-13 17:18:57$GPGSV,3,1,10,10,78,309,34,12,37,075,29,23,57,147,30,24,16,047,18,1*63
	
2024-08-13 17:18:57$GPGSV,3,2,10,25,48,125,31,28,42,244,29,31,09,233,21,32,48,324,33,1*6C
	
2024-08-13 17:18:57$GPGSV,3,3,10,18,02,180,,21,07,309,,1*69
	
2024-08-13 17:18:57$GLGSV,2,1,05,09,54,181,30,07,26,324,20,06,55,025,,15,07,026,,1*7F
	
2024-08-13 17:18:57$GLGSV,2,2,05,05,18,099,,1*41
	
2024-08-13 17:18:57$GAGSV,1,1,01,06,00,000,30,7*47
	
2024-08-13 17:18:57$GQGSV,1,1,02,02,00,000,26,04,00,000,30,1*66
	
2024-08-13 17:18:57$GBGSV,1,1,04,20,32,317,23,16,70,289,25,01,41,130,,04,28,116,,1*7F
	
2024-08-13 17:18:57$GPGSA,A,3,10,12,23,24,25,28,32,,,,,,1.5,1.2,0.9,1*28
	
2024-08-13 17:18:57$GPVTG,,T,,M,0.0,N,0.0,K,A*23
	
2024-08-13 17:18:57$GPDTM,W84,,0000.000000,N,00000.000000,E,0.000,W84*5F
	
2024-08-13 17:18:57$GPRMC,091858.00,A,3029.471467,N,11430.076459,E,0.0,,130824,3.5,W,A,V*75
	
2024-08-13 17:18:57$GPGNS,091858.00,3029.471467,N,11430.076459,E,ANNNNN,07,1.2,,,,,V*0B
	
2024-08-13 17:18:57$GPGGA,091858.00,3029.471467,N,11430.076459,E,1,07,1.2,,,,,,*54
	
2024-08-13 17:18:58$GPGSV,3,1,10,10,78,309,36,12,37,075,32,23,57,147,32,24,16,047,18,1*69
	
2024-08-13 17:18:58$GPGSV,3,2,10,25,48,125,34,28,42,244,32,31,09,233,20,32,48,324,35,1*64
	
2024-08-13 17:18:58$GPGSV,3,3,10,18,02,180,,21,07,309,,1*69
	
2024-08-13 17:18:58$GLGSV,2,1,05,09,54,181,30,07,26,324,20,06,55,025,,15,07,026,,1*7F
	
2024-08-13 17:18:58$GLGSV,2,2,05,05,18,099,,1*41
	
2024-08-13 17:18:58$GAGSV,1,1,01,06,00,000,32,7*45
	
2024-08-13 17:18:58$GQGSV,1,1,02,02,00,000,26,04,00,000,33,1*65
	
2024-08-13 17:18:58$GBGSV,1,1,04,20,32,317,22,16,70,289,23,01,41,130,,04,28,116,,1*78
	
2024-08-13 17:18:58$GPGSA,A,3,10,12,23,24,25,28,32,,,,,,1.5,1.2,0.9,1*28
	
2024-08-13 17:18:58$GPVTG,,T,,M,0.0,N,0.0,K,A*23
	
2024-08-13 17:18:58$GPDTM,W84,,0000.000000,N,00000.000000,E,0.000,W84*5F
	
2024-08-13 17:18:58$GPRMC,091859.00,A,3029.471096,N,11430.076144,E,0.0,,130824,3.5,W,A,V*77
	
2024-08-13 17:18:58$GPGNS,091859.00,3029.471096,N,11430.076144,E,ANNNNN,07,1.2,,,,,V*09
	
2024-08-13 17:18:58$GPGGA,091859.00,3029.471096,N,11430.076144,E,1,07,1.2,,,,,,*56
	
2024-08-13 17:18:59$GPGSV,3,1,10,10,78,309,37,12,37,075,33,23,57,147,34,24,16,047,18,1*6F
	
2024-08-13 17:18:59$GPGSV,3,2,10,25,48,125,34,28,42,244,32,31,09,233,21,32,48,324,35,1*65
	
2024-08-13 17:18:59$GPGSV,3,3,10,18,02,180,,21,07,309,,1*69
	
2024-08-13 17:18:59$GLGSV,2,1,05,09,54,181,31,05,18,099,18,07,26,324,20,06,55,025,,1*7C
	
2024-08-13 17:18:59$GLGSV,2,2,05,15,07,026,,1*4A
	
2024-08-13 17:18:59$GAGSV,1,1,01,06,00,000,33,7*44
	
2024-08-13 17:18:59$GQGSV,1,1,02,02,00,000,26,04,00,000,34,1*62
	
2024-08-13 17:18:59$GBGSV,1,1,04,20,32,317,22,16,70,289,22,01,41,130,,04,28,116,,1*79
	
2024-08-13 17:18:59$GPGSA,A,3,10,12,23,24,25,28,32,,,,,,1.5,1.2,0.9,1*28
	
2024-08-13 17:18:59$GPVTG,,T,,M,0.0,N,0.0,K,A*23
	
2024-08-13 17:18:59$GPDTM,W84,,0000.000000,N,00000.000000,E,0.000,W84*5F
	
2024-08-13 17:18:59$GPRMC,091900.00,A,3029.470726,N,11430.075982,E,0.0,,130824,3.5,W,A,V*76
	
2024-08-13 17:18:59$GPGNS,091900.00,3029.470726,N,11430.075982,E,ANNNNN,07,1.2,,,,,V*08
	
2024-08-13 17:18:59$GPGGA,091900.00,3029.470726,N,11430.075982,E,1,07,1.2,,,,,,*57
	
2024-08-13 17:19:00$GPGSV,3,1,10,10,78,309,38,12,37,075,33,23,57,147,34,24,16,047,18,1*60
	
2024-08-13 17:19:00$GPGSV,3,2,10,25,48,125,34,28,42,244,33,31,09,233,21,32,48,324,36,1*67
	
2024-08-13 17:19:00$GPGSV,3,3,10,18,02,180,,21,07,309,,1*69
	
2024-08-13 17:19:00$GLGSV,2,1,05,09,54,181,30,05,18,099,18,07,26,324,20,06,55,025,,1*7D
	
2024-08-13 17:19:00$GLGSV,2,2,05,15,07,026,,1*4A
	
2024-08-13 17:19:00$GAGSV,1,1,01,06,00,000,34,7*43
	
2024-08-13 17:19:00$GQGSV,1,1,02,02,00,000,28,04,00,000,34,1*6C
	
2024-08-13 17:19:00$GBGSV,1,1,04,20,32,317,22,16,70,289,23,01,41,130,,04,28,116,,1*78
	
2024-08-13 17:19:00$GPGSA,A,3,10,12,23,24,25,28,32,,,,,,1.5,1.2,0.9,1*28
	
2024-08-13 17:19:00$GPVTG,,T,,M,0.0,N,0.0,K,A*23
	
2024-08-13 17:19:00$GPDTM,W84,,0000.000000,N,00000.000000,E,0.000,W84*5F
	
2024-08-13 17:19:00$GPRMC,091901.00,A,3029.470427,N,11430.075860,E,0.0,,130824,3.5,W,A,V*78
	
2024-08-13 17:19:00$GPGNS,091901.00,3029.470427,N,11430.075860,E,ANNNNN,07,1.2,,,,,V*06
	
2024-08-13 17:19:00$GPGGA,091901.00,3029.470427,N,11430.075860,E,1,07,1.2,,,,,,*59
	
2024-08-13 17:19:01$GPGSV,3,1,10,10,78,309,38,12,37,075,33,23,57,147,33,24,16,047,18,1*67
	
2024-08-13 17:19:01$GPGSV,3,2,10,25,48,125,35,28,42,244,33,31,09,233,21,32,48,324,35,1*65
	
2024-08-13 17:19:01$GPGSV,3,3,10,18,02,180,,21,07,309,,1*69
	
2024-08-13 17:19:01$GLGSV,2,1,05,09,54,181,30,05,18,099,18,07,26,324,20,06,55,025,,1*7D
	
2024-08-13 17:19:01$GLGSV,2,2,05,15,07,026,,1*4A
	
2024-08-13 17:19:01$GAGSV,1,1,01,06,00,000,34,7*43
	
2024-08-13 17:19:01$GQGSV,1,1,02,02,00,000,30,04,00,000,34,1*65
	
2024-08-13 17:19:01$GBGSV,1,1,04,20,32,317,23,16,70,289,22,01,41,130,,04,28,116,,1*78
	
2024-08-13 17:19:01$GPGSA,A,3,10,12,23,24,25,28,32,,,,,,1.5,1.2,0.9,1*28
	
2024-08-13 17:19:01$GPVTG,,T,,M,0.0,N,0.0,K,A*23
	
2024-08-13 17:19:01$GPDTM,W84,,0000.000000,N,00000.000000,E,0.000,W84*5F
	
2024-08-13 17:19:01$GPRMC,091902.00,A,3029.470162,N,11430.075794,E,0.0,,130824,3.5,W,A,V*7B
	
2024-08-13 17:19:01$GPGNS,091902.00,3029.470162,N,11430.075794,E,ANNNNN,07,1.2,,,,,V*05
	
2024-08-13 17:19:01$GPGGA,091902.00,3029.470162,N,11430.075794,E,1,07,1.2,,,,,,*5A
	
2024-08-13 17:19:02$GPGSV,3,1,10,10,78,309,37,12,37,075,32,23,57,147,33,24,16,047,23,1*61
	
2024-08-13 17:19:02$GPGSV,3,2,10,25,48,125,34,28,42,244,32,31,09,233,23,32,48,324,35,1*67
	
2024-08-13 17:19:02$GPGSV,3,3,10,18,02,180,,21,07,309,,1*69
	
2024-08-13 17:19:02$GLGSV,2,1,05,09,54,181,30,05,18,099,18,07,26,324,23,06,55,025,,1*7E
	
2024-08-13 17:19:02$GLGSV,2,2,05,15,07,026,,1*4A
	
2024-08-13 17:19:02$GAGSV,1,1,01,06,00,000,33,7*44
	
2024-08-13 17:19:02$GQGSV,1,1,02,02,00,000,29,04,00,000,33,1*6A
	
2024-08-13 17:19:02$GBGSV,1,1,04,20,32,317,23,16,70,289,22,01,41,130,,04,28,116,,1*78
	
2024-08-13 17:19:02$GPGSA,A,3,10,12,23,24,25,28,32,,,,,,1.5,1.2,0.9,1*28
	
2024-08-13 17:19:02$GPVTG,,T,,M,0.0,N,0.0,K,A*23
	
2024-08-13 17:19:02$GPDTM,W84,,0000.000000,N,00000.000000,E,0.000,W84*5F
	
2024-08-13 17:19:02$GPRMC,091903.00,A,3029.470631,N,11430.076149,E,0.0,,130824,3.5,W,A,V*7E
	
2024-08-13 17:19:02$GPGNS,091903.00,3029.470631,N,11430.076149,E,ANNNNN,07,1.2,,,,,V*00
	
2024-08-13 17:19:02$GPGGA,091903.00,3029.470631,N,11430.076149,E,1,07,1.2,,,,,,*5F
	
2024-08-13 17:19:03$GPGSV,3,1,10,10,78,309,37,12,37,075,32,23,57,147,33,24,16,047,23,1*61
	
2024-08-13 17:19:03$GPGSV,3,2,10,25,48,125,34,28,42,244,32,31,09,233,23,32,48,324,34,1*66
	
2024-08-13 17:19:03$GPGSV,3,3,10,18,02,180,,21,07,309,,1*69
	
2024-08-13 17:19:03$GLGSV,2,1,05,09,54,181,29,05,18,099,18,07,26,324,23,06,55,025,,1*76
	
2024-08-13 17:19:03$GLGSV,2,2,05,15,07,026,,1*4A
	
2024-08-13 17:19:03$GAGSV,1,1,01,06,00,000,33,7*44
	
2024-08-13 17:19:03$GQGSV,1,1,02,02,00,000,29,04,00,000,34,1*6D
	
2024-08-13 17:19:03$GBGSV,1,1,04,20,32,317,22,16,70,289,24,01,41,130,,04,28,116,,1*7F
	
2024-08-13 17:19:03$GPGSA,A,3,10,12,23,24,25,28,32,,,,,,1.5,1.2,0.9,1*28
	
2024-08-13 17:19:03$GPVTG,,T,,M,0.0,N,0.0,K,A*23
	
2024-08-13 17:19:03$GPDTM,W84,,0000.000000,N,00000.000000,E,0.000,W84*5F
	
2024-08-13 17:19:03$GPRMC,091904.00,A,3029.470604,N,11430.076157,E,0.0,,130824,3.5,W,A,V*70
	
2024-08-13 17:19:03$GPGNS,091904.00,3029.470604,N,11430.076157,E,ANNNNN,07,1.2,,,,,V*0E
	
2024-08-13 17:19:03$GPGGA,091904.00,3029.470604,N,11430.076157,E,1,07,1.2,,,,,,*51
	
2024-08-13 17:19:04$GPGSV,3,1,10,10,78,309,37,12,37,075,32,18,02,180,20,23,57,147,34,1*65
	
2024-08-13 17:19:04$GPGSV,3,2,10,24,16,047,22,25,48,125,34,28,42,244,33,31,09,233,23,1*6A
	
2024-08-13 17:19:04$GPGSV,3,3,10,32,48,324,35,21,07,309,,1*65
	
2024-08-13 17:19:04$GLGSV,2,1,05,09,54,181,29,05,18,099,18,07,26,324,24,06,55,025,,1*71
	
2024-08-13 17:19:04$GLGSV,2,2,05,15,07,026,,1*4A
	
2024-08-13 17:19:04$GAGSV,1,1,01,06,00,000,33,7*44
	
2024-08-13 17:19:04$GQGSV,1,1,02,02,00,000,29,04,00,000,34,1*6D
	
2024-08-13 17:19:04$GBGSV,1,1,04,20,32,317,25,16,70,289,25,01,41,130,,04,28,116,,1*79
	
2024-08-13 17:19:04$GPGSA,A,3,10,12,23,24,25,28,32,,,,,,1.5,1.2,0.9,1*28
	
2024-08-13 17:19:04$GPVTG,,T,,M,0.0,N,0.0,K,A*23
	
2024-08-13 17:19:04$GPDTM,W84,,0000.000000,N,00000.000000,E,0.000,W84*5F
	
2024-08-13 17:19:04$GPRMC,091905.00,A,3029.470732,N,11430.076253,E,0.0,,130824,3.5,W,A,V*72
	
2024-08-13 17:19:04$GPGNS,091905.00,3029.470732,N,11430.076253,E,ANNNNN,07,1.2,,,,,V*0C
	
2024-08-13 17:19:04$GPGGA,091905.00,3029.470732,N,11430.076253,E,1,07,1.2,,,,,,*53
	
2024-08-13 17:19:05$GPGSV,3,1,10,10,78,309,36,12,37,075,32,18,02,180,20,23,57,147,33,1*63
	
2024-08-13 17:19:05$GPGSV,3,2,10,24,16,047,22,25,48,125,34,28,42,244,32,31,09,233,21,1*69
	
2024-08-13 17:19:05$GPGSV,3,3,10,32,48,324,34,21,07,309,,1*64
	
2024-08-13 17:19:05$GLGSV,2,1,05,09,54,181,29,05,18,099,18,07,26,324,25,06,55,025,,1*70
	
2024-08-13 17:19:05$GLGSV,2,2,05,15,07,026,,1*4A
	
2024-08-13 17:19:05$GAGSV,1,1,01,06,00,000,33,7*44
	
2024-08-13 17:19:05$GQGSV,1,1,02,02,00,000,29,04,00,000,34,1*6D
	
2024-08-13 17:19:05$GBGSV,1,1,04,20,32,317,22,16,70,289,25,01,41,130,,04,28,116,,1*7E
	
2024-08-13 17:19:05$GPGSA,A,3,10,12,23,24,25,28,32,,,,,,1.5,1.2,0.9,1*28
	
2024-08-13 17:19:05$GPVTG,,T,,M,0.0,N,0.0,K,A*23
	
2024-08-13 17:19:05$GPDTM,W84,,0000.000000,N,00000.000000,E,0.000,W84*5F
	
2024-08-13 17:19:05$GPRMC,091906.00,A,3029.470719,N,11430.076250,E,0.0,,130824,3.5,W,A,V*7B
	
2024-08-13 17:19:05$GPGNS,091906.00,3029.470719,N,11430.076250,E,ANNNNN,07,1.2,,,,,V*05
	
2024-08-13 17:19:05$GPGGA,091906.00,3029.470719,N,11430.076250,E,1,07,1.2,,,,,,*5A
	
2024-08-13 17:19:06$GPGSV,3,1,10,10,78,309,37,12,37,075,32,18,02,180,20,23,57,147,33,1*62
	
2024-08-13 17:19:06$GPGSV,3,2,10,24,16,047,21,25,48,125,34,28,42,244,31,31,09,233,22,1*6A
	
2024-08-13 17:19:06$GPGSV,3,3,10,32,48,324,34,21,07,309,,1*64
	
2024-08-13 17:19:06$GLGSV,2,1,05,09,54,181,27,05,18,099,18,07,26,324,25,06,55,025,,1*7E
	
2024-08-13 17:19:06$GLGSV,2,2,05,15,07,026,,1*4A
	
2024-08-13 17:19:06$GAGSV,1,1,01,06,00,000,33,7*44
	
2024-08-13 17:19:06$GQGSV,1,1,02,02,00,000,29,04,00,000,33,1*6A
	
2024-08-13 17:19:06$GBGSV,1,1,04,20,32,317,22,16,70,289,21,01,41,130,,04,28,116,,1*7A
	
2024-08-13 17:19:06$GPGSA,A,3,10,12,23,24,25,28,32,,,,,,1.5,1.2,0.9,1*28
	
2024-08-13 17:19:06$GPVTG,,T,,M,0.0,N,0.0,K,A*23
	
2024-08-13 17:19:06$GPDTM,W84,,0000.000000,N,00000.000000,E,0.000,W84*5F
	
2024-08-13 17:19:06$GPRMC,091907.00,A,3029.470862,N,11430.076354,E,0.0,,130824,3.5,W,A,V*7C
	
2024-08-13 17:19:06$GPGNS,091907.00,3029.470862,N,11430.076354,E,ANNNNN,07,1.2,,,,,V*02
	
2024-08-13 17:19:06$GPGGA,091907.00,3029.470862,N,11430.076354,E,1,07,1.2,,,,,,*5D
	
2024-08-13 17:19:07$GPGSV,3,1,10,10,78,309,37,12,37,075,32,18,02,180,20,23,57,147,33,1*62
	
2024-08-13 17:19:07$GPGSV,3,2,10,24,16,047,21,25,48,125,34,28,42,244,31,31,09,233,21,1*69
	
2024-08-13 17:19:07$GPGSV,3,3,10,32,48,324,35,21,07,309,,1*65
	
2024-08-13 17:19:07$GLGSV,2,1,05,09,54,181,27,05,18,099,18,07,26,324,24,06,55,025,,1*7F
	
2024-08-13 17:19:07$GLGSV,2,2,05,15,07,026,,1*4A
	
2024-08-13 17:19:07$GAGSV,1,1,01,06,00,000,33,7*44
	
2024-08-13 17:19:07$GQGSV,1,1,02,02,00,000,29,04,00,000,33,1*6A
	
2024-08-13 17:19:07$GBGSV,1,1,04,20,32,317,22,16,70,289,21,01,41,130,,04,28,116,,1*7A
	
2024-08-13 17:19:07$GPGSA,A,3,10,12,23,24,25,28,32,,,,,,1.5,1.2,0.9,1*28
	
2024-08-13 17:19:07$GPVTG,,T,,M,0.0,N,0.0,K,A*23
	
2024-08-13 17:19:07$GPDTM,W84,,0000.000000,N,00000.000000,E,0.000,W84*5F
	
2024-08-13 17:19:07$GPRMC,091908.00,A,3029.470852,N,11430.076352,E,0.0,,130824,3.5,W,A,V*76
	
2024-08-13 17:19:07$GPGNS,091908.00,3029.470852,N,11430.076352,E,ANNNNN,07,1.2,,,,,V*08
	
2024-08-13 17:19:07$GPGGA,091908.00,3029.470852,N,11430.076352,E,1,07,1.2,,,,,,*57
	
2024-08-13 17:19:08$GPGSV,3,1,10,10,78,309,38,12,37,075,33,18,02,180,20,23,57,147,34,1*6B
	
2024-08-13 17:19:08$GPGSV,3,2,10,24,16,047,21,25,48,125,35,28,42,244,32,31,09,233,22,1*68
	
2024-08-13 17:19:08$GPGSV,3,3,10,32,48,324,35,21,07,309,,1*65
	
2024-08-13 17:19:08$GLGSV,2,1,05,09,54,181,27,05,18,099,18,07,26,324,26,06,55,025,,1*7D
	
2024-08-13 17:19:08$GLGSV,2,2,05,15,07,026,,1*4A
	
2024-08-13 17:19:08$GAGSV,1,1,01,06,00,000,33,7*44
	
2024-08-13 17:19:08$GQGSV,1,1,02,02,00,000,29,04,00,000,34,1*6D
	
2024-08-13 17:19:08$GBGSV,1,1,04,20,32,317,22,16,70,289,21,01,41,130,,04,28,116,,1*7A
	
2024-08-13 17:19:08$GPGSA,A,3,10,12,23,24,25,28,32,,,,,,1.5,1.2,0.9,1*28
	
2024-08-13 17:19:08$GPVTG,,T,,M,0.0,N,0.0,K,A*23
	
2024-08-13 17:19:08$GPDTM,W84,,0000.000000,N,00000.000000,E,0.000,W84*5F
	
2024-08-13 17:19:08$GPRMC,091909.00,A,3029.470841,N,11430.076354,E,0.0,,130824,3.5,W,A,V*73
	
2024-08-13 17:19:08$GPGNS,091909.00,3029.470841,N,11430.076354,E,ANNNNN,07,1.2,,,,,V*0D
	
2024-08-13 17:19:08$GPGGA,091909.00,3029.470841,N,11430.076354,E,1,07,1.2,,,,,,*52
	
2024-08-13 17:19:09$GPGSV,3,1,10,10,78,309,38,12,37,075,33,18,02,180,20,23,57,147,34,1*6B
	
2024-08-13 17:19:09$GPGSV,3,2,10,24,16,047,19,25,48,125,35,28,42,244,32,31,09,233,24,1*65
	
2024-08-13 17:19:09$GPGSV,3,3,10,32,48,324,35,21,07,309,,1*65
	
2024-08-13 17:19:09$GLGSV,2,1,05,09,54,181,29,05,18,099,18,07,26,324,26,06,55,025,,1*73
	
2024-08-13 17:19:09$GLGSV,2,2,05,15,07,026,,1*4A
	
2024-08-13 17:19:09$GAGSV,1,1,01,06,00,000,34,7*43
	
2024-08-13 17:19:09$GQGSV,1,1,02,02,00,000,30,04,00,000,35,1*64
	
2024-08-13 17:19:09$GBGSV,1,1,04,20,32,317,22,16,70,289,19,01,41,130,,04,28,116,,1*71
	
2024-08-13 17:19:09$GPGSA,A,3,10,12,23,24,25,28,32,,,,,,1.5,1.2,0.9,1*28
	
2024-08-13 17:19:09$GPVTG,,T,,M,0.0,N,0.0,K,A*23
	
2024-08-13 17:19:09$GPDTM,W84,,0000.000000,N,00000.000000,E,0.000,W84*5F
	
2024-08-13 17:19:09$GPRMC,091910.00,A,3029.470849,N,11430.076364,E,0.0,,130824,3.5,W,A,V*70
	
2024-08-13 17:19:09$GPGNS,091910.00,3029.470849,N,11430.076364,E,ANNNNN,07,1.2,,,,,V*0E
	
2024-08-13 17:19:09$GPGGA,091910.00,3029.470849,N,11430.076364,E,1,07,1.2,,,,,,*51
	
2024-08-13 17:19:10$GPGSV,3,1,10,10,78,309,38,12,37,075,34,18,02,180,20,23,57,147,35,1*6D
	
2024-08-13 17:19:10$GPGSV,3,2,10,24,16,047,19,25,48,125,35,28,42,244,32,31,09,233,23,1*62
	
2024-08-13 17:19:10$GPGSV,3,3,10,32,48,324,36,21,07,309,,1*66
	
2024-08-13 17:19:10$GLGSV,2,1,05,09,54,181,28,05,18,099,18,07,26,324,27,06,55,025,,1*73
	
2024-08-13 17:19:10$GLGSV,2,2,05,15,07,026,,1*4A
	
2024-08-13 17:19:10$GAGSV,1,1,01,06,00,000,34,7*43
	
2024-08-13 17:19:10$GQGSV,1,1,02,02,00,000,30,04,00,000,34,1*65
	
2024-08-13 17:19:10$GBGSV,1,1,04,20,32,317,19,16,70,289,19,01,41,130,,04,28,116,,1*79
	
2024-08-13 17:19:10$GPGSA,A,3,10,12,23,24,25,28,32,,,,,,1.5,1.2,0.9,1*28
	
2024-08-13 17:19:10$GPVTG,,T,,M,0.0,N,0.0,K,A*23
	
2024-08-13 17:19:10$GPDTM,W84,,0000.000000,N,00000.000000,E,0.000,W84*5F
	
2024-08-13 17:19:10$GPRMC,091911.00,A,3029.470838,N,11430.076361,E,0.0,,130824,3.5,W,A,V*72
	
2024-08-13 17:19:10$GPGNS,091911.00,3029.470838,N,11430.076361,E,ANNNNN,07,1.2,,,,,V*0C
	
2024-08-13 17:19:10$GPGGA,091911.00,3029.470838,N,11430.076361,E,1,07,1.2,,,,,,*53
	
2024-08-13 17:19:11$GPGSV,3,1,10,10,78,309,37,12,37,075,33,18,02,180,20,23,57,147,34,1*64
	
2024-08-13 17:19:11$GPGSV,3,2,10,24,16,047,20,25,48,125,34,28,42,244,32,31,09,233,22,1*68
	
2024-08-13 17:19:11$GPGSV,3,3,10,32,48,324,35,21,07,309,,1*65
	
2024-08-13 17:19:11$GLGSV,2,1,05,09,54,181,28,05,18,099,18,07,26,324,25,06,55,025,,1*71
	
2024-08-13 17:19:11$GLGSV,2,2,05,15,07,026,,1*4A
	
2024-08-13 17:19:11$GAGSV,1,1,01,06,00,000,32,7*45
	
2024-08-13 17:19:11$GQGSV,1,1,02,02,00,000,29,04,00,000,34,1*6D
	
2024-08-13 17:19:11$GBGSV,1,1,04,20,32,317,23,16,70,289,20,01,41,130,,04,28,116,,1*7A
	
2024-08-13 17:19:11$GPGSA,A,3,10,12,23,24,25,28,32,,,,,,1.5,1.2,0.9,1*28
	
2024-08-13 17:19:11$GPVTG,,T,,M,0.0,N,0.0,K,A*23
	
2024-08-13 17:19:11$GPDTM,W84,,0000.000000,N,00000.000000,E,0.000,W84*5F
	
2024-08-13 17:19:11$GPRMC,091912.00,A,3029.470841,N,11430.076367,E,0.0,,130824,3.5,W,A,V*79
	
2024-08-13 17:19:11$GPGNS,091912.00,3029.470841,N,11430.076367,E,ANNNNN,07,1.2,,,,,V*07
	
2024-08-13 17:19:11$GPGGA,091912.00,3029.470841,N,11430.076367,E,1,07,1.2,,,,,,*58
	
2024-08-13 17:19:12$GPGSV,3,1,10,10,78,309,37,12,37,075,33,18,02,180,20,23,57,147,34,1*64
	
2024-08-13 17:19:12$GPGSV,3,2,10,24,16,047,20,25,48,125,33,28,42,244,31,31,09,233,23,1*6D
	
2024-08-13 17:19:12$GPGSV,3,3,10,32,48,324,35,21,07,309,,1*65
	
2024-08-13 17:19:12$GLGSV,2,1,05,09,54,181,28,05,18,099,18,07,26,324,24,06,55,025,,1*70
	
2024-08-13 17:19:12$GLGSV,2,2,05,15,07,026,,1*4A
	
2024-08-13 17:19:12$GAGSV,1,1,01,06,00,000,32,7*45
	
2024-08-13 17:19:12$GQGSV,1,1,02,02,00,000,29,04,00,000,33,1*6A
	
2024-08-13 17:19:12$GBGSV,1,1,04,20,32,317,24,16,70,289,23,01,41,130,,04,28,116,,1*7E
	
2024-08-13 17:19:12$GPGSA,A,3,10,12,23,24,25,28,32,,,,,,1.5,1.2,0.9,1*28
	
2024-08-13 17:19:12$GPVTG,,T,,M,0.0,N,0.0,K,A*23
	
2024-08-13 17:19:12$GPDTM,W84,,0000.000000,N,00000.000000,E,0.000,W84*5F
	
2024-08-13 17:19:12$GPRMC,091913.00,A,3029.470835,N,11430.076361,E,0.0,,130824,3.5,W,A,V*7D
	
2024-08-13 17:19:12$GPGNS,091913.00,3029.470835,N,11430.076361,E,ANNNNN,07,1.2,,,,,V*03
	
2024-08-13 17:19:12$GPGGA,091913.00,3029.470835,N,11430.076361,E,1,07,1.2,,,,,,*5C
	
2024-08-13 17:19:13$GPGSV,3,1,10,10,78,309,38,12,37,075,34,18,02,180,20,23,57,147,35,1*6D
	
2024-08-13 17:19:13$GPGSV,3,2,10,24,16,047,20,25,48,125,34,28,42,244,32,31,09,233,22,1*68
	
2024-08-13 17:19:13$GPGSV,3,3,10,32,48,324,35,21,07,309,,1*65
	
2024-08-13 17:19:13$GLGSV,2,1,05,09,54,181,28,05,18,099,18,07,26,324,25,06,55,025,,1*71
	
2024-08-13 17:19:13$GLGSV,2,2,05,15,07,026,,1*4A
	
2024-08-13 17:19:13$GAGSV,1,1,01,06,00,000,33,7*44
	
2024-08-13 17:19:13$GQGSV,1,1,02,02,00,000,30,04,00,000,34,1*65
	
2024-08-13 17:19:13$GBGSV,1,1,04,20,32,317,26,16,70,289,27,01,41,130,,04,28,116,,1*78
	
2024-08-13 17:19:13$GPGSA,A,3,10,12,23,24,25,28,32,,,,,,1.5,1.2,0.9,1*28
	
2024-08-13 17:19:13$GPVTG,,T,,M,0.0,N,0.0,K,A*23
	
2024-08-13 17:19:13$GPDTM,W84,,0000.000000,N,00000.000000,E,0.000,W84*5F
	
2024-08-13 17:19:13$GPRMC,091914.00,A,3029.470825,N,11430.076357,E,0.0,,130824,3.5,W,A,V*7E
	
2024-08-13 17:19:13$GPGNS,091914.00,3029.470825,N,11430.076357,E,ANNNNN,07,1.2,,,,,V*00
	
2024-08-13 17:19:13$GPGGA,091914.00,3029.470825,N,11430.076357,E,1,07,1.2,,,,,,*5F
	
2024-08-13 17:19:14$GPGSV,3,1,10,10,78,309,38,12,37,075,34,23,57,147,35,24,16,047,20,1*6D
	
2024-08-13 17:19:14$GPGSV,3,2,10,25,48,125,35,28,42,244,32,31,09,233,24,32,48,324,36,1*62
	
2024-08-13 17:19:14$GPGSV,3,3,10,18,02,180,,21,07,309,,1*69
	
2024-08-13 17:19:14$GLGSV,2,1,06,09,54,181,29,16,57,047,32,05,18,099,18,07,26,324,22,1*72
	
2024-08-13 17:19:14$GLGSV,2,2,06,06,55,025,,15,07,026,,1*78
	
2024-08-13 17:19:14$GAGSV,1,1,01,06,00,000,34,7*43
	
2024-08-13 17:19:14$GQGSV,1,1,02,02,00,000,30,04,00,000,34,1*65
	
2024-08-13 17:19:14$GBGSV,1,1,04,20,32,317,26,16,70,289,24,01,41,130,,04,28,116,,1*7B
	
2024-08-13 17:19:14$GPGSA,A,3,10,12,23,24,25,28,32,,,,,,1.5,1.2,0.9,1*28
	
2024-08-13 17:19:14$GPVTG,,T,,M,0.0,N,0.0,K,A*23
	
2024-08-13 17:19:14$GPDTM,W84,,0000.000000,N,00000.000000,E,0.000,W84*5F
	
2024-08-13 17:19:14$GPRMC,091915.00,A,3029.470819,N,11430.076354,E,0.0,,130824,3.5,W,A,V*73
	
2024-08-13 17:19:14$GPGNS,091915.00,3029.470819,N,11430.076354,E,ANNNNN,07,1.2,,,,,V*0D
	
2024-08-13 17:19:14$GPGGA,091915.00,3029.470819,N,11430.076354,E,1,07,1.2,,,,,,*52
	
2024-08-13 17:19:15$GPGSV,3,1,10,10,78,309,38,12,37,075,33,23,57,147,35,24,16,047,20,1*6A
	
2024-08-13 17:19:15$GPGSV,3,2,10,25,48,125,34,28,42,244,32,31,09,233,23,32,48,324,36,1*64
	
2024-08-13 17:19:15$GPGSV,3,3,10,18,02,180,,21,07,309,,1*69
	
2024-08-13 17:19:15$GLGSV,2,1,06,09,54,181,28,16,57,047,31,05,18,099,14,07,26,324,21,1*7F
	
2024-08-13 17:19:15$GLGSV,2,2,06,06,55,025,,15,07,026,,1*78
	
2024-08-13 17:19:15$GAGSV,1,1,01,06,00,000,34,7*43
	
2024-08-13 17:19:15$GQGSV,1,1,02,02,00,000,30,04,00,000,34,1*65
	
2024-08-13 17:19:15$GBGSV,1,1,04,20,32,317,26,16,70,289,24,01,41,130,,04,28,116,,1*7B
	
2024-08-13 17:19:15$GPGSA,A,3,10,12,23,24,25,28,32,,,,,,1.5,1.2,0.9,1*28
	
2024-08-13 17:19:15$GPVTG,,T,,M,0.0,N,0.0,K,A*23
	
2024-08-13 17:19:15$GPDTM,W84,,0000.000000,N,00000.000000,E,0.000,W84*5F
	
2024-08-13 17:19:15$GPRMC,091916.00,A,3029.470814,N,11430.076354,E,0.0,,130824,3.5,W,A,V*7D
	
2024-08-13 17:19:15$GPGNS,091916.00,3029.470814,N,11430.076354,E,ANNNNN,07,1.2,,,,,V*03
	
2024-08-13 17:19:15$GPGGA,091916.00,3029.470814,N,11430.076354,E,1,07,1.2,,,,,,*5C
	
2024-08-13 17:19:16$GPGSV,3,1,10,10,78,309,37,12,37,075,33,23,57,147,34,24,16,047,20,1*64
	
2024-08-13 17:19:16$GPGSV,3,2,10,25,48,125,33,28,42,244,30,31,09,233,24,32,48,324,35,1*65
	
2024-08-13 17:19:16$GPGSV,3,3,10,18,02,180,,21,07,309,,1*69
	
2024-08-13 17:19:16$GLGSV,2,1,06,09,54,181,28,16,57,047,31,05,18,099,14,07,26,324,21,1*7F
	
2024-08-13 17:19:16$GLGSV,2,2,06,06,55,025,,15,07,026,,1*78
	
2024-08-13 17:19:16$GAGSV,1,1,01,06,00,000,33,7*44
	
2024-08-13 17:19:16$GQGSV,1,1,02,02,00,000,28,04,00,000,33,1*6B
	
2024-08-13 17:19:16$GBGSV,1,1,04,20,32,317,26,16,70,289,25,01,41,130,,04,28,116,,1*7A
	
2024-08-13 17:19:16$GPGSA,A,3,10,12,23,24,25,28,32,,,,,,1.5,1.2,0.9,1*28
	
2024-08-13 17:19:16$GPVTG,,T,,M,0.0,N,0.0,K,A*23
	
2024-08-13 17:19:16$GPDTM,W84,,0000.000000,N,00000.000000,E,0.000,W84*5F
	
2024-08-13 17:19:16$GPRMC,091917.00,A,3029.470808,N,11430.076353,E,0.0,,130824,3.5,W,A,V*76
	
2024-08-13 17:19:16$GPGNS,091917.00,3029.470808,N,11430.076353,E,ANNNNN,07,1.2,,,,,V*08
	
2024-08-13 17:19:16$GPGGA,091917.00,3029.470808,N,11430.076353,E,1,07,1.2,,,,,,*57
	
2024-08-13 17:19:17$GPGSV,3,1,10,10,78,309,38,12,37,075,34,23,57,147,35,24,16,047,19,1*67
	
2024-08-13 17:19:17$GPGSV,3,2,10,25,48,125,34,28,42,244,32,31,09,233,24,32,48,324,36,1*63
	
2024-08-13 17:19:17$GPGSV,3,3,10,18,02,180,,21,07,309,,1*69
	
2024-08-13 17:19:17$GLGSV,2,1,06,09,54,181,28,16,57,047,31,05,18,099,14,07,26,324,21,1*7F
	
2024-08-13 17:19:17$GLGSV,2,2,06,06,55,025,,15,07,026,,1*78
	
2024-08-13 17:19:17$GAGSV,1,1,01,06,00,000,34,7*43
	
2024-08-13 17:19:17$GQGSV,1,1,02,02,00,000,30,04,00,000,34,1*65
	
2024-08-13 17:19:17$GBGSV,1,1,04,20,32,317,26,16,70,289,25,01,41,130,,04,28,116,,1*7A
	
2024-08-13 17:19:17$GPGSA,A,3,10,12,23,24,25,28,32,,,,,,1.5,1.2,0.9,1*28
	
2024-08-13 17:19:17$GPVTG,,T,,M,0.0,N,0.0,K,A*23
	
2024-08-13 17:19:17$GPDTM,W84,,0000.000000,N,00000.000000,E,0.000,W84*5F
	
2024-08-13 17:19:17$GPRMC,091918.00,A,3029.470795,N,11430.076344,E,0.0,,130824,3.5,W,A,V*74
	
2024-08-13 17:19:17$GPGNS,091918.00,3029.470795,N,11430.076344,E,ANNNNN,07,1.2,,,,,V*0A
	
2024-08-13 17:19:17$GPGGA,091918.00,3029.470795,N,11430.076344,E,1,07,1.2,,,,,,*55
	
2024-08-13 17:19:18$GPGSV,3,1,10,10,78,309,39,12,37,075,34,23,57,147,36,24,16,047,19,1*65
	
2024-08-13 17:19:18$GPGSV,3,2,10,25,48,125,35,28,42,244,33,31,09,233,25,32,48,324,37,1*63
	
2024-08-13 17:19:18$GPGSV,3,3,10,18,02,180,,21,07,309,,1*69
	
2024-08-13 17:19:18$GLGSV,2,1,06,09,54,181,29,16,57,047,31,05,18,099,14,07,26,324,21,1*7E
	
2024-08-13 17:19:18$GLGSV,2,2,06,06,55,025,,15,07,026,,1*78
	
2024-08-13 17:19:18$GAGSV,1,1,01,06,00,000,35,7*42
	
2024-08-13 17:19:18$GQGSV,1,1,02,02,00,000,31,04,00,000,35,1*65
	
2024-08-13 17:19:18$GBGSV,1,1,04,20,32,317,25,16,70,289,24,01,41,130,,04,28,116,,1*78
	
2024-08-13 17:19:18$GPGSA,A,3,10,12,23,24,25,28,32,,,,,,1.5,1.2,0.9,1*28
	
2024-08-13 17:19:18$GPVTG,,T,,M,0.0,N,0.0,K,A*23
	
2024-08-13 17:19:18$GPDTM,W84,,0000.000000,N,00000.000000,E,0.000,W84*5F
	
2024-08-13 17:19:18$GPRMC,091919.00,A,3029.470783,N,11430.076340,E,0.0,,130824,3.5,W,A,V*76
	
2024-08-13 17:19:18$GPGNS,091919.00,3029.470783,N,11430.076340,E,ANNNNN,07,1.2,,,,,V*08
	
2024-08-13 17:19:18$GPGGA,091919.00,3029.470783,N,11430.076340,E,1,07,1.2,,,,,,*57
	
2024-08-13 17:19:19$GPGSV,3,1,10,10,78,309,38,12,37,075,34,23,57,147,36,24,16,047,21,1*6F
	
2024-08-13 17:19:19$GPGSV,3,2,10,25,48,125,34,28,42,244,32,31,09,233,24,32,48,324,37,1*62
	
2024-08-13 17:19:19$GPGSV,3,3,10,18,02,180,,21,07,309,,1*69
	
2024-08-13 17:19:19$GLGSV,2,1,06,09,54,181,27,16,57,047,30,05,18,099,14,07,26,324,21,1*71
	
2024-08-13 17:19:19$GLGSV,2,2,06,06,55,025,,15,07,026,,1*78
	
2024-08-13 17:19:19$GAGSV,1,1,01,06,00,000,34,7*43
	
2024-08-13 17:19:19$GQGSV,1,1,02,02,00,000,29,04,00,000,35,1*6C
	
2024-08-13 17:19:19$GBGSV,1,1,04,20,32,317,25,16,70,289,24,01,41,130,,04,28,116,,1*78
	
2024-08-13 17:19:19$GPGSA,A,3,10,12,23,24,25,28,32,,,,,,1.5,1.2,0.9,1*28
	
2024-08-13 17:19:19$GPVTG,,T,,M,0.0,N,0.0,K,A*23
	
2024-08-13 17:19:19$GPDTM,W84,,0000.000000,N,00000.000000,E,0.000,W84*5F
	
2024-08-13 17:19:19$GPRMC,091920.00,A,3029.470758,N,11430.076331,E,0.0,,130824,3.5,W,A,V*7C
	
2024-08-13 17:19:19$GPGNS,091920.00,3029.470758,N,11430.076331,E,ANNNNN,07,1.2,,,,,V*02
	
2024-08-13 17:19:19$GPGGA,091920.00,3029.470758,N,11430.076331,E,1,07,1.2,,,,,,*5D
	
2024-08-13 17:19:20$GPGSV,3,1,10,10,78,309,39,12,37,075,34,23,57,147,36,24,16,047,21,1*6E
	
2024-08-13 17:19:20$GPGSV,3,2,10,25,48,125,35,28,42,244,33,31,09,233,24,32,48,324,37,1*62
	
2024-08-13 17:19:20$GPGSV,3,3,10,18,02,180,,21,07,309,,1*69
	
2024-08-13 17:19:20$GLGSV,2,1,06,09,54,181,29,16,57,047,32,05,18,099,14,07,26,324,21,1*7D
	
2024-08-13 17:19:20$GLGSV,2,2,06,06,55,025,,15,07,026,,1*78
	
2024-08-13 17:19:20$GAGSV,1,1,01,06,00,000,34,7*43
	
2024-08-13 17:19:20$GQGSV,1,1,02,02,00,000,30,04,00,000,35,1*64
	
2024-08-13 17:19:20$GBGSV,1,1,04,20,32,317,21,16,70,289,24,01,41,130,,04,28,116,,1*7C
	
2024-08-13 17:19:20$GPGSA,A,3,10,12,23,24,25,28,32,,,,,,1.5,1.2,0.9,1*28
	
2024-08-13 17:19:20$GPVTG,,T,,M,0.0,N,0.0,K,A*23
	
2024-08-13 17:19:20$GPDTM,W84,,0000.000000,N,00000.000000,E,0.000,W84*5F
	
2024-08-13 17:19:20$GPRMC,091921.00,A,3029.470753,N,11430.076333,E,0.0,,130824,3.5,W,A,V*74
	
2024-08-13 17:19:20$GPGNS,091921.00,3029.470753,N,11430.076333,E,ANNNNN,07,1.2,,,,,V*0A
	
2024-08-13 17:19:20$GPGGA,091921.00,3029.470753,N,11430.076333,E,1,07,1.2,,,,,,*55
	
2024-08-13 17:19:21$GPGSV,3,1,10,10,78,309,38,12,37,075,33,23,57,147,34,24,16,047,21,1*6A
	
2024-08-13 17:19:21$GPGSV,3,2,10,25,48,125,33,28,42,244,31,31,09,233,24,32,48,324,36,1*67
	
2024-08-13 17:19:21$GPGSV,3,3,10,18,02,180,,21,07,309,,1*69
	
2024-08-13 17:19:21$GLGSV,2,1,06,09,54,181,29,16,57,047,31,05,18,099,14,07,26,324,21,1*7E
	
2024-08-13 17:19:21$GLGSV,2,2,06,06,55,025,,15,07,026,,1*78
	
2024-08-13 17:19:21$GAGSV,1,1,01,06,00,000,33,7*44
	
2024-08-13 17:19:21$GQGSV,1,1,02,02,00,000,30,04,00,000,34,1*65
	
2024-08-13 17:19:21$GBGSV,1,1,04,20,32,317,26,16,70,289,21,01,41,130,,04,28,116,,1*7E
	
2024-08-13 17:19:21$GPGSA,A,3,10,12,23,24,25,28,32,,,,,,1.5,1.2,0.9,1*28
	
2024-08-13 17:19:21$GPVTG,,T,,M,0.0,N,0.0,K,A*23
	
2024-08-13 17:19:21$GPDTM,W84,,0000.000000,N,00000.000000,E,0.000,W84*5F
	
2024-08-13 17:19:21$GPRMC,091922.00,A,3029.470742,N,11430.076329,E,0.0,,130824,3.5,W,A,V*7C
	
2024-08-13 17:19:21$GPGNS,091922.00,3029.470742,N,11430.076329,E,ANNNNN,07,1.2,,,,,V*02
	
2024-08-13 17:19:21$GPGGA,091922.00,3029.470742,N,11430.076329,E,1,07,1.2,,,,,,*5D
	
2024-08-13 17:19:22$GPGSV,3,1,10,10,78,309,38,12,37,075,33,23,57,147,34,24,16,047,20,1*6B
	
2024-08-13 17:19:22$GPGSV,3,2,10,25,48,125,33,28,42,244,31,31,09,233,22,32,48,324,35,1*62
	
2024-08-13 17:19:22$GPGSV,3,3,10,18,02,180,,21,07,309,,1*69
	
2024-08-13 17:19:22$GLGSV,2,1,06,09,54,181,29,16,57,047,30,05,18,099,14,07,26,324,21,1*7F
	
2024-08-13 17:19:22$GLGSV,2,2,06,06,55,025,,15,07,026,,1*78
	
2024-08-13 17:19:22$GAGSV,1,1,01,06,00,000,33,7*44
	
2024-08-13 17:19:22$GQGSV,1,1,02,02,00,000,29,04,00,000,34,1*6D
	
